[
    {"name": "Uchi", "cuisine": "japanese", "rating": 4.8, "address": "904 Westheimer Rd, Houston, TX 77006", "lat": 29.7402, "lng": -95.3902},
    {"name": "Xochi", "cuisine": "mexican", "rating": 4.7, "address": "1777 Walker St, Houston, TX 77010", "lat": 29.7535, "lng": -95.3592},
    {"name": "The Original Ninfa's on Navigation", "cuisine": "mexican", "rating": 4.6, "address": "2704 Navigation Blvd, Houston, TX 77003", "lat": 29.7593, "lng": -95.3407},
    {"name": "Pappas Bros. Steakhouse", "cuisine": "american", "rating": 4.8, "address": "5839 Westheimer Rd, Houston, TX 77057", "lat": 29.7384, "lng": -95.4839},
    {"name": "Killen's STQ", "cuisine": "american", "rating": 4.7, "address": "2231 S Voss Rd, Houston, TX 77057", "lat": 29.7397, "lng": -95.4984},
    {"name": "Truth BBQ", "cuisine": "bbq", "rating": 4.8, "address": "110 S Heights Blvd, Houston, TX 77007", "lat": 29.7758, "lng": -95.3979},
    {"name": "BCN Taste & Tradition", "cuisine": "spanish", "rating": 4.7, "address": "4210 Roseland St, Houston, TX 77006", "lat": 29.7431, "lng": -95.3957},
    {"name": "Kata Robata", "cuisine": "japanese", "rating": 4.7, "address": "3600 Kirby Dr, Houston, TX 77098", "lat": 29.7327, "lng": -95.4187},
    {"name": "Bludorn", "cuisine": "french", "rating": 4.6, "address": "807 Taft St, Houston, TX 77019", "lat": 29.7583, "lng": -95.3855},
    {"name": "Georgia James", "cuisine": "american", "rating": 4.6, "address": "3503 W Dallas St, Houston, TX 77019", "lat": 29.7554, "lng": -95.4057},
    {"name": "Brennan's of Houston", "cuisine": "creole", "rating": 4.7, "address": "3300 Smith St, Houston, TX 77006", "lat": 29.7466, "lng": -95.3855},
    {"name": "Coltivare Pizza & Garden", "cuisine": "italian", "rating": 4.7, "address": "3320 White Oak Dr, Houston, TX 77007", "lat": 29.7828, "lng": -95.3965},
    {"name": "Hugo's", "cuisine": "mexican", "rating": 4.6, "address": "1600 Westheimer Rd, Houston, TX 77006", "lat": 29.7447, "lng": -95.3995},
    {"name": "Nancy's Hustle", "cuisine": "american", "rating": 4.8, "address": "2704 Polk St, Houston, TX 77003", "lat": 29.7503, "lng": -95.3479},
    {"name": "Crawfish & Noodles", "cuisine": "vietnamese", "rating": 4.6, "address": "11360 Bellaire Blvd, Houston, TX 77072", "lat": 29.7077, "lng": -95.5925},
    {"name": "Theodore Rex", "cuisine": "american", "rating": 4.7, "address": "1302 Nance St, Houston, TX 77002", "lat": 29.7667, "lng": -95.3551},
    {"name": "Himalaya Restaurant", "cuisine": "indian", "rating": 4.6, "address": "6652 Southwest Fwy, Houston, TX 77074", "lat": 29.7153, "lng": -95.5005},
    {"name": "Vic & Anthony's Steakhouse", "cuisine": "american", "rating": 4.7, "address": "1510 Texas Ave, Houston, TX 77002", "lat": 29.7578, "lng": -95.3582},
    {"name": "Tony's", "cuisine": "italian", "rating": 4.6, "address": "3755 Richmond Ave, Houston, TX 77046", "lat": 29.7345, "lng": -95.4389},
    {"name": "Da Marco Cucina E Vino", "cuisine": "italian", "rating": 4.7, "address": "1520 Westheimer Rd, Houston, TX 77006", "lat": 29.7446, "lng": -95.3985},
    {"name": "MF Sushi", "cuisine": "japanese", "rating": 4.6, "address": "1401 Binz St #100, Houston, TX 77004", "lat": 29.7258, "lng": -95.3858},
    {"name": "Killen's Barbecue", "cuisine": "bbq", "rating": 4.6, "address": "3613 E Broadway St, Pearland, TX 77581", "lat": 29.5638, "lng": -95.2393},
    {"name": "Perry's Steakhouse & Grille (The Woodlands)", "cuisine": "american", "rating": 4.6, "address": "6700 Woodlands Pkwy, The Woodlands, TX 77382", "lat": 30.1764, "lng": -95.5393},
    {"name": "Japaneiro's Sushi Bistro & Latin Grill", "cuisine": "japanese", "rating": 4.6, "address": "2168 Texas Dr, Sugar Land, TX 77479", "lat": 29.6108, "lng": -95.6322},
    {"name": "Local Foods (The Woodlands)", "cuisine": "american", "rating": 4.6, "address": "1900 Hughes Landing Blvd, The Woodlands, TX 77380", "lat": 30.1601, "lng": -95.4673},
    {"name": "Whiskey Cake Kitchen & Bar (The Woodlands)", "cuisine": "american", "rating": 4.5, "address": "27800 N Fwy Service Rd, The Woodlands, TX 77385", "lat": 30.1983, "lng": -95.4593},
    {"name": "Grazia Italian Kitchen (Pearland)", "cuisine": "italian", "rating": 4.6, "address": "9415 Broadway St, Pearland, TX 77584", "lat": 29.5492, "lng": -95.3789},
    {"name": "Guru Burgers & Crepes (Sugar Land)", "cuisine": "american", "rating": 4.5, "address": "2200 Town Square Pl #100, Sugar Land, TX 77479", "lat": 29.6201, "lng": -95.6262},
    {"name": "Fielding's Wood Grill (The Woodlands)", "cuisine": "american", "rating": 4.5, "address": "1699 Research Forest Dr, Shenandoah, TX 77380", "lat": 30.1793, "lng": -95.4665},
    {"name": "Tris (The Woodlands)", "cuisine": "american", "rating": 4.7, "address": "24 Waterway Ave #125, The Woodlands, TX 77380", "lat": 30.1668, "lng": -95.4662},
    {"name": "B.B. Lemon", "cuisine": "american", "rating": 4.4, "address": "1809 Washington Ave, Houston, TX 77007", "lat": 29.7699, "lng": -95.3776},
    {"name": "Superica", "cuisine": "mexican", "rating": 4.5, "address": "1801 N Shepherd Dr, Houston, TX 77008", "lat": 29.7997, "lng": -95.4101},
    {"name": "Mastro's Steakhouse", "cuisine": "american", "rating": 4.6, "address": "1650 W Loop S, Houston, TX 77027", "lat": 29.7483, "lng": -95.4612},
    {"name": "Caracol", "cuisine": "mexican", "rating": 4.5, "address": "2200 Post Oak Blvd #160, Houston, TX 77056", "lat": 29.7428, "lng": -95.4627},
    {"name": "State of Grace", "cuisine": "american", "rating": 4.6, "address": "3258 Westheimer Rd, Houston, TX 77098", "lat": 29.7391, "lng": -95.4338},
    {"name": "UB Preserv", "cuisine": "asian", "rating": 4.6, "address": "1609 Westheimer Rd, Houston, TX 77006", "lat": 29.7448, "lng": -95.3999},
    {"name": "Fadi's Mediterranean Grill", "cuisine": "mediterranean", "rating": 4.5, "address": "4738 Beechnut St, Houston, TX 77096", "lat": 29.7042, "lng": -95.4593},
    {"name": "Aga's Restaurant & Catering", "cuisine": "indian", "rating": 4.6, "address": "11842 Wilcrest Dr, Houston, TX 77031", "lat": 29.6465, "lng": -95.5714},
    {"name": "Roegels Barbecue Co.", "cuisine": "bbq", "rating": 4.6, "address": "2223 S Voss Rd, Houston, TX 77057", "lat": 29.7402, "lng": -95.4984},
    {"name": "Teppay Japanese Restaurant", "cuisine": "japanese", "rating": 4.6, "address": "6516 Westheimer Rd, Houston, TX 77057", "lat": 29.7378, "lng": -95.4987},
    {"name": "Pondicheri", "cuisine": "indian", "rating": 4.4, "address": "2800 Kirby Dr, Houston, TX 77098", "lat": 29.7412, "lng": -95.4182},
    {"name": "Mala Sichuan Bistro (Chinatown)", "cuisine": "chinese", "rating": 4.5, "address": "9348 Bellaire Blvd, Houston, TX 77036", "lat": 29.7131, "lng": -95.5539},
    {"name": "Etoile Cuisine et Bar", "cuisine": "french", "rating": 4.6, "address": "1101-11 Uptown Park Blvd, Houston, TX 77056", "lat": 29.7513, "lng": -95.4674},
    {"name": "Nobu Houston", "cuisine": "japanese", "rating": 4.5, "address": "5115 Westheimer Rd, Houston, TX 77056", "lat": 29.7369, "lng": -95.4646},
    {"name": "Traveler's Table", "cuisine": "international", "rating": 4.6, "address": "520 Westheimer Rd, Houston, TX 77006", "lat": 29.7428, "lng": -95.3892},
    {"name": "La Lucha", "cuisine": "american", "rating": 4.6, "address": "1801 N Shepherd Dr #A, Houston, TX 77008", "lat": 29.7997, "lng": -95.4103},
    {"name": "Oporto Fooding House & Wine", "cuisine": "portuguese", "rating": 4.6, "address": "125 W Gray St #500, Houston, TX 77019", "lat": 29.7514, "lng": -95.3855},
    {"name": "Roka Akor - Houston", "cuisine": "japanese", "rating": 4.6, "address": "2929 Weslayan St, Houston, TX 77027", "lat": 29.7401, "lng": -95.4429},
    {"name": "The Classic", "cuisine": "american", "rating": 4.6, "address": "5922 Washington Ave, Houston, TX 77007", "lat": 29.7828, "lng": -95.4326},
    {"name": "Postino Montrose", "cuisine": "italian", "rating": 4.7, "address": "805 Pacific St, Houston, TX 77006", "lat": 29.7491, "lng": -95.3941},
    {"name": "Squable", "cuisine": "american", "rating": 4.7, "address": "632 W 19th St, Houston, TX 77008", "lat": 29.8091, "lng": -95.4124},
    {"name": "Rosie Cannonball", "cuisine": "italian", "rating": 4.6, "address": "1620 Westheimer Rd, Houston, TX 77006", "lat": 29.7449, "lng": -95.4005},
    {"name": "Better Luck Tomorrow", "cuisine": "american", "rating": 4.5, "address": "544 Yale St, Houston, TX 77007", "lat": 29.7845, "lng": -95.4042},
    {"name": "La Griglia", "cuisine": "italian", "rating": 4.5, "address": "2002 W Gray St, Houston, TX 77019", "lat": 29.7493, "lng": -95.4087},
    {"name": "Toulouse", "cuisine": "french", "rating": 4.5, "address": "4444 Westheimer Rd, Houston, TX 77027", "lat": 29.7428, "lng": -95.4542},
    {"name": "Bloom & Bee (The Woodlands)", "cuisine": "american", "rating": 4.5, "address": "1600 W Loop S, Houston, TX 77027", "lat": 30.1661, "lng": -95.4646},
    {"name": "Giacomo's Cibo e Vino", "cuisine": "italian", "rating": 4.6, "address": "3215 Westheimer Rd, Houston, TX 77098", "lat": 29.7393, "lng": -95.4321},
    {"name": "Riel", "cuisine": "international", "rating": 4.6, "address": "1927 Fairview St, Houston, TX 77006", "lat": 29.7496, "lng": -95.3929},
    {"name": "Cuchara", "cuisine": "mexican", "rating": 4.5, "address": "214 Fairview St, Houston, TX 77006", "lat": 29.7501, "lng": -95.3905},
    {"name": "The Pit Room", "cuisine": "bbq", "rating": 4.6, "address": "1201 Richmond Ave, Houston, TX 77006", "lat": 29.7388, "lng": -95.4001},
    {"name": "Musaafer", "cuisine": "indian", "rating": 4.7, "address": "5115 Westheimer Rd Suite C-3500, Houston, TX 77056", "lat": 29.7371, "lng": -95.4651},
    {"name": "March", "cuisine": "mediterranean", "rating": 4.9, "address": "1624 Westheimer Rd, Houston, TX 77006", "lat": 29.7449, "lng": -95.4008},
    {"name": "Shun Japanese Kitchen", "cuisine": "japanese", "rating": 4.7, "address": "2802 S Shepherd Dr, Houston, TX 77098", "lat": 29.7418, "lng": -95.4116},
    {"name": "1751 Sea and Bar", "cuisine": "seafood", "rating": 4.6, "address": "1917 W T C Jester Blvd, Houston, TX 77008", "lat": 29.8105, "lng": -95.4215},
    {"name": "Azzurro Italian Coastal Cuisine", "cuisine": "italian", "rating": 4.5, "address": "1950 Hughes Landing Blvd #1900, The Woodlands, TX 77380", "lat": 30.1601, "lng": -95.4682},
    {"name": "Goode Company Fish Camp", "cuisine": "seafood", "rating": 4.4, "address": "8865 Six Pines Dr, The Woodlands, TX 77380", "lat": 30.1741, "lng": -95.4641},
    {"name": "Sakekawa Japanese Steakhouse", "cuisine": "japanese", "rating": 4.3, "address": "6777 Woodlands Pkwy, The Woodlands, TX 77382", "lat": 30.1748, "lng": -95.5422},
    {"name": "Hyderabad House", "cuisine": "indian", "rating": 4.2, "address": "407 Sawdust Rd, The Woodlands, TX 77380", "lat": 30.1465, "lng": -95.4599},
    {"name": "Amerigo's Grille", "cuisine": "italian", "rating": 4.5, "address": "25250 Grogan's Park Dr, The Woodlands, TX 77380", "lat": 30.1424, "lng": -95.4573},
    {"name": "Pappadeaux Seafood Kitchen (The Woodlands)", "cuisine": "creole", "rating": 4.5, "address": "18165 I-45 South, Conroe, TX 77385", "lat": 30.2011, "lng": -95.4583},
    {"name": "Aki Steak & Sushi", "cuisine": "japanese", "rating": 4.4, "address": "510 TX-6, Sugar Land, TX 77479", "lat": 29.5886, "lng": -95.6375},
    {"name": "Naseeb Indian Restaurant", "cuisine": "indian", "rating": 4.5, "address": "3559 Hwy 6, Sugar Land, TX 77478", "lat": 29.6264, "lng": -95.6379},
    {"name": "The Nines Thai Cuisine", "cuisine": "thai", "rating": 4.6, "address": "203 Century Square Blvd, Sugar Land, TX 77478", "lat": 29.6208, "lng": -95.6269},
    {"name": "Cafe Goo Goo Yen", "cuisine": "chinese", "rating": 4.3, "address": "1730 Williams Trace Blvd, Sugar Land, TX 77478", "lat": 29.6051, "lng": -95.6325},
    {"name": "Tempura Grill", "cuisine": "pakistani", "rating": 4.2, "address": "16305 Kensington Dr, Sugar Land, TX 77479", "lat": 29.6105, "lng": -95.6395},
    {"name": "Pearland & Baytown Seafood", "cuisine": "seafood", "rating": 4.4, "address": "129 W Parkwood Ave, Friendswood, TX 77546", "lat": 29.5805, "lng": -95.2016},
    {"name": "All Season Seafood", "cuisine": "seafood", "rating": 4.3, "address": "8201 Broadway St, Pearland, TX 77581", "lat": 29.5691, "lng": -95.2754},
    {"name": "Tang's Kitchen", "cuisine": "chinese", "rating": 4.5, "address": "2975 Kingsley Dr, Pearland, TX 77584", "lat": 29.5532, "lng": -95.3458},
    {"name": "Pearl Dynasty", "cuisine": "chinese", "rating": 4.4, "address": "8321 Broadway St, Pearland, TX 77581", "lat": 29.5682, "lng": -95.2771},
    {"name": "Steamboat Bill's", "cuisine": "cajun", "rating": 4.3, "address": "1134 N Main St, Pearland, TX 77581", "lat": 29.5746, "lng": -95.2891},
    {"name": "Ploy Thai Cuisine", "cuisine": "thai", "rating": 4.5, "address": "9561 Jones Rd, Houston, TX 77065", "lat": 29.8943, "lng": -95.5928},
    {"name": "Casa Maria Mexican Restaurant", "cuisine": "mexican", "rating": 4.4, "address": "3811 N Fry Rd, Katy, TX 77449", "lat": 29.8339, "lng": -95.7089},
    {"name": "Lozano's Mexican Restaurant", "cuisine": "mexican", "rating": 4.5, "address": "1251 Pin Oak Rd, Katy, TX 77494", "lat": 29.7825, "lng": -95.7865},
    {"name": "Babin's Seafood House", "cuisine": "cajun", "rating": 4.3, "address": "21851 Katy Fwy, Katy, TX 77450", "lat": 29.7828, "lng": -95.7504},
    {"name": "Crawfish Cafe", "cuisine": "cajun", "rating": 4.5, "address": "24330 US-290, Cypress, TX 77429", "lat": 29.9575, "lng": -95.6792},
    {"name": "Cypress Station Grill", "cuisine": "american", "rating": 4.3, "address": "26010 Hempstead Rd, Cypress, TX 77429", "lat": 29.9675, "lng": -95.6981},
    {"name": "King of India", "cuisine": "indian", "rating": 4.4, "address": "25250 Northwest Fwy, Cypress, TX 77429", "lat": 29.9621, "lng": -95.6914},
    {"name": "Galiana's Tex-Mex", "cuisine": "mexican", "rating": 4.5, "address": "24110 US-290, Cypress, TX 77429", "lat": 29.9554, "lng": -95.6766},
    {"name": "The Red Brick Tavern", "cuisine": "american", "rating": 4.5, "address": "119 Simonton St, Conroe, TX 77301", "lat": 30.3133, "lng": -95.4571},
    {"name": "Kuntry Katfish", "cuisine": "seafood", "rating": 4.4, "address": "5901 W Davis St, Conroe, TX 77304", "lat": 30.3235, "lng": -95.5323},
    {"name": "Pacific Yard House", "cuisine": "american", "rating": 4.3, "address": "101 Metcalf St, Conroe, TX 77301", "lat": 30.3101, "lng": -95.4566},
    {"name": "Walk-On's Sports Bistreaux", "cuisine": "cajun", "rating": 4.2, "address": "1000 Outpost Dr, Conroe, TX 77304", "lat": 30.3421, "lng": -95.4955},
    {"name": "Kitchen Tales", "cuisine": "american", "rating": 4.6, "address": "449 S Loop 336 W, Conroe, TX 77304", "lat": 30.2933, "lng": -95.4951}
] 