[
    {"name": "Uchi", "cuisine": "japanese", "rating": 4.8, "address": "904 Westheimer Rd, Houston, TX 77006", "lat": 29.7402, "lng": -95.3902},
    {"name": "Xochi", "cuisine": "mexican", "rating": 4.7, "address": "1777 Walker St, Houston, TX 77010", "lat": 29.7535, "lng": -95.3592},
    {"name": "The Original Ninfa's on Navigation", "cuisine": "mexican", "rating": 4.6, "address": "2704 Navigation Blvd, Houston, TX 77003", "lat": 29.7593, "lng": -95.3407},
    {"name": "Pappas Bros. Steakhouse", "cuisine": "american", "rating": 4.8, "address": "5839 Westheimer Rd, Houston, TX 77057", "lat": 29.7384, "lng": -95.4839},
    {"name": "Killen's STQ", "cuisine": "american", "rating": 4.7, "address": "2231 S Voss Rd, Houston, TX 77057", "lat": 29.7397, "lng": -95.4984},
    {"name": "Truth BBQ", "cuisine": "bbq", "rating": 4.8, "address": "110 S Heights Blvd, Houston, TX 77007", "lat": 29.7758, "lng": -95.3979},
    {"name": "BCN Taste & Tradition", "cuisine": "spanish", "rating": 4.7, "address": "4210 Roseland St, Houston, TX 77006", "lat": 29.7431, "lng": -95.3957},
    {"name": "Kata Robata", "cuisine": "japanese", "rating": 4.7, "address": "3600 Kirby Dr, Houston, TX 77098", "lat": 29.7327, "lng": -95.4187},
    {"name": "Bludorn", "cuisine": "french", "rating": 4.6, "address": "807 Taft St, Houston, TX 77019", "lat": 29.7583, "lng": -95.3855},
    {"name": "Georgia James", "cuisine": "american", "rating": 4.6, "address": "3503 W Dallas St, Houston, TX 77019", "lat": 29.7554, "lng": -95.4057},
    {"name": "Brennan's of Houston", "cuisine": "creole", "rating": 4.7, "address": "3300 Smith St, Houston, TX 77006", "lat": 29.7466, "lng": -95.3855},
    {"name": "Coltivare Pizza & Garden", "cuisine": "italian", "rating": 4.7, "address": "3320 White Oak Dr, Houston, TX 77007", "lat": 29.7828, "lng": -95.3965},
    {"name": "Hugo's", "cuisine": "mexican", "rating": 4.6, "address": "1600 Westheimer Rd, Houston, TX 77006", "lat": 29.7447, "lng": -95.3995},
    {"name": "Nancy's Hustle", "cuisine": "american", "rating": 4.8, "address": "2704 Polk St, Houston, TX 77003", "lat": 29.7503, "lng": -95.3479},
    {"name": "Crawfish & Noodles", "cuisine": "vietnamese", "rating": 4.6, "address": "11360 Bellaire Blvd, Houston, TX 77072", "lat": 29.7077, "lng": -95.5925},
    {"name": "Theodore Rex", "cuisine": "american", "rating": 4.7, "address": "1302 Nance St, Houston, TX 77002", "lat": 29.7667, "lng": -95.3551},
    {"name": "Himalaya Restaurant", "cuisine": "indian", "rating": 4.6, "address": "6652 Southwest Fwy, Houston, TX 77074", "lat": 29.7153, "lng": -95.5005},
    {"name": "Vic & Anthony's Steakhouse", "cuisine": "american", "rating": 4.7, "address": "1510 Texas Ave, Houston, TX 77002", "lat": 29.7578, "lng": -95.3582},
    {"name": "Tony's", "cuisine": "italian", "rating": 4.6, "address": "3755 Richmond Ave, Houston, TX 77046", "lat": 29.7345, "lng": -95.4389},
    {"name": "Da Marco Cucina E Vino", "cuisine": "italian", "rating": 4.7, "address": "1520 Westheimer Rd, Houston, TX 77006", "lat": 29.7446, "lng": -95.3985},
    {"name": "MF Sushi", "cuisine": "japanese", "rating": 4.6, "address": "1401 Binz St #100, Houston, TX 77004", "lat": 29.7258, "lng": -95.3858},
    {"name": "Killen's Barbecue", "cuisine": "bbq", "rating": 4.6, "address": "3613 E Broadway St, Pearland, TX 77581", "lat": 29.5638, "lng": -95.2393},
    {"name": "Perry's Steakhouse & Grille (The Woodlands)", "cuisine": "american", "rating": 4.6, "address": "6700 Woodlands Pkwy, The Woodlands, TX 77382", "lat": 30.1764, "lng": -95.5393},
    {"name": "Japaneiro's Sushi Bistro & Latin Grill", "cuisine": "japanese", "rating": 4.6, "address": "2168 Texas Dr, Sugar Land, TX 77479", "lat": 29.6108, "lng": -95.6322},
    {"name": "Local Foods (The Woodlands)", "cuisine": "american", "rating": 4.6, "address": "1900 Hughes Landing Blvd, The Woodlands, TX 77380", "lat": 30.1601, "lng": -95.4673},
    {"name": "Whiskey Cake Kitchen & Bar (The Woodlands)", "cuisine": "american", "rating": 4.5, "address": "27800 N Fwy Service Rd, The Woodlands, TX 77385", "lat": 30.1983, "lng": -95.4593},
    {"name": "Grazia Italian Kitchen (Pearland)", "cuisine": "italian", "rating": 4.6, "address": "9415 Broadway St, Pearland, TX 77584", "lat": 29.5492, "lng": -95.3789},
    {"name": "Guru Burgers & Crepes (Sugar Land)", "cuisine": "american", "rating": 4.5, "address": "2200 Town Square Pl #100, Sugar Land, TX 77479", "lat": 29.6201, "lng": -95.6262},
    {"name": "Fielding's Wood Grill (The Woodlands)", "cuisine": "american", "rating": 4.5, "address": "1699 Research Forest Dr, Shenandoah, TX 77380", "lat": 30.1793, "lng": -95.4665},
    {"name": "Tris (The Woodlands)", "cuisine": "american", "rating": 4.7, "address": "24 Waterway Ave #125, The Woodlands, TX 77380", "lat": 30.1668, "lng": -95.4662},
    {"name": "B.B. Lemon", "cuisine": "american", "rating": 4.4, "address": "1809 Washington Ave, Houston, TX 77007", "lat": 29.7699, "lng": -95.3776},
    {"name": "Superica", "cuisine": "mexican", "rating": 4.5, "address": "1801 N Shepherd Dr, Houston, TX 77008", "lat": 29.7997, "lng": -95.4101},
    {"name": "Mastro's Steakhouse", "cuisine": "american", "rating": 4.6, "address": "1650 W Loop S, Houston, TX 77027", "lat": 29.7483, "lng": -95.4612},
    {"name": "Caracol", "cuisine": "mexican", "rating": 4.5, "address": "2200 Post Oak Blvd #160, Houston, TX 77056", "lat": 29.7428, "lng": -95.4627},
    {"name": "State of Grace", "cuisine": "american", "rating": 4.6, "address": "3258 Westheimer Rd, Houston, TX 77098", "lat": 29.7391, "lng": -95.4338},
    {"name": "UB Preserv", "cuisine": "asian", "rating": 4.6, "address": "1609 Westheimer Rd, Houston, TX 77006", "lat": 29.7448, "lng": -95.3999},
    {"name": "Fadi's Mediterranean Grill", "cuisine": "mediterranean", "rating": 4.5, "address": "4738 Beechnut St, Houston, TX 77096", "lat": 29.7042, "lng": -95.4593},
    {"name": "Aga's Restaurant & Catering", "cuisine": "indian", "rating": 4.6, "address": "11842 Wilcrest Dr, Houston, TX 77031", "lat": 29.6465, "lng": -95.5714},
    {"name": "Roegels Barbecue Co.", "cuisine": "bbq", "rating": 4.6, "address": "2223 S Voss Rd, Houston, TX 77057", "lat": 29.7402, "lng": -95.4984},
    {"name": "Teppay Japanese Restaurant", "cuisine": "japanese", "rating": 4.6, "address": "6516 Westheimer Rd, Houston, TX 77057", "lat": 29.7378, "lng": -95.4987},
    {"name": "Pondicheri", "cuisine": "indian", "rating": 4.4, "address": "2800 Kirby Dr, Houston, TX 77098", "lat": 29.7412, "lng": -95.4182},
    {"name": "Mala Sichuan Bistro (Chinatown)", "cuisine": "chinese", "rating": 4.5, "address": "9348 Bellaire Blvd, Houston, TX 77036", "lat": 29.7131, "lng": -95.5539},
    {"name": "Etoile Cuisine et Bar", "cuisine": "french", "rating": 4.6, "address": "1101-11 Uptown Park Blvd, Houston, TX 77056", "lat": 29.7513, "lng": -95.4674},
    {"name": "Nobu Houston", "cuisine": "japanese", "rating": 4.5, "address": "5115 Westheimer Rd, Houston, TX 77056", "lat": 29.7369, "lng": -95.4646},
    {"name": "Traveler's Table", "cuisine": "international", "rating": 4.6, "address": "520 Westheimer Rd, Houston, TX 77006", "lat": 29.7428, "lng": -95.3892},
    {"name": "La Lucha", "cuisine": "american", "rating": 4.6, "address": "1801 N Shepherd Dr #A, Houston, TX 77008", "lat": 29.7997, "lng": -95.4103},
    {"name": "Oporto Fooding House & Wine", "cuisine": "portuguese", "rating": 4.6, "address": "125 W Gray St #500, Houston, TX 77019", "lat": 29.7514, "lng": -95.3855},
    {"name": "Roka Akor - Houston", "cuisine": "japanese", "rating": 4.6, "address": "2929 Weslayan St, Houston, TX 77027", "lat": 29.7401, "lng": -95.4429},
    {"name": "The Classic", "cuisine": "american", "rating": 4.6, "address": "5922 Washington Ave, Houston, TX 77007", "lat": 29.7828, "lng": -95.4326},
    {"name": "Postino Montrose", "cuisine": "italian", "rating": 4.7, "address": "805 Pacific St, Houston, TX 77006", "lat": 29.7491, "lng": -95.3941},
    {"name": "Squable", "cuisine": "american", "rating": 4.7, "address": "632 W 19th St, Houston, TX 77008", "lat": 29.8091, "lng": -95.4124},
    {"name": "Rosie Cannonball", "cuisine": "italian", "rating": 4.6, "address": "1620 Westheimer Rd, Houston, TX 77006", "lat": 29.7449, "lng": -95.4005},
    {"name": "Better Luck Tomorrow", "cuisine": "american", "rating": 4.5, "address": "544 Yale St, Houston, TX 77007", "lat": 29.7845, "lng": -95.4042},
    {"name": "La Griglia", "cuisine": "italian", "rating": 4.5, "address": "2002 W Gray St, Houston, TX 77019", "lat": 29.7493, "lng": -95.4087},
    {"name": "Toulouse", "cuisine": "french", "rating": 4.5, "address": "4444 Westheimer Rd, Houston, TX 77027", "lat": 29.7428, "lng": -95.4542},
    {"name": "Bloom & Bee (The Woodlands)", "cuisine": "american", "rating": 4.5, "address": "1600 W Loop S, Houston, TX 77027", "lat": 30.1661, "lng": -95.4646},
    {"name": "Giacomo's Cibo e Vino", "cuisine": "italian", "rating": 4.6, "address": "3215 Westheimer Rd, Houston, TX 77098", "lat": 29.7393, "lng": -95.4321},
    {"name": "Riel", "cuisine": "international", "rating": 4.6, "address": "1927 Fairview St, Houston, TX 77006", "lat": 29.7496, "lng": -95.3929},
    {"name": "Cuchara", "cuisine": "mexican", "rating": 4.5, "address": "214 Fairview St, Houston, TX 77006", "lat": 29.7501, "lng": -95.3905},
    {"name": "The Pit Room", "cuisine": "bbq", "rating": 4.6, "address": "1201 Richmond Ave, Houston, TX 77006", "lat": 29.7388, "lng": -95.4001},
    {"name": "Musaafer", "cuisine": "indian", "rating": 4.7, "address": "5115 Westheimer Rd Suite C-3500, Houston, TX 77056", "lat": 29.7371, "lng": -95.4651},
    {"name": "March", "cuisine": "mediterranean", "rating": 4.9, "address": "1624 Westheimer Rd, Houston, TX 77006", "lat": 29.7449, "lng": -95.4008},
    {"name": "Shun Japanese Kitchen", "cuisine": "japanese", "rating": 4.7, "address": "2802 S Shepherd Dr, Houston, TX 77098", "lat": 29.7418, "lng": -95.4116},
    {"name": "1751 Sea and Bar", "cuisine": "seafood", "rating": 4.6, "address": "1917 W T C Jester Blvd, Houston, TX 77008", "lat": 29.8105, "lng": -95.4215},
    {"name": "Azzurro Italian Coastal Cuisine", "cuisine": "italian", "rating": 4.5, "address": "1950 Hughes Landing Blvd #1900, The Woodlands, TX 77380", "lat": 30.1601, "lng": -95.4682},
    {"name": "Goode Company Fish Camp", "cuisine": "seafood", "rating": 4.4, "address": "8865 Six Pines Dr, The Woodlands, TX 77380", "lat": 30.1741, "lng": -95.4641},
    {"name": "Sakekawa Japanese Steakhouse", "cuisine": "japanese", "rating": 4.3, "address": "6777 Woodlands Pkwy, The Woodlands, TX 77382", "lat": 30.1748, "lng": -95.5422},
    {"name": "Hyderabad House", "cuisine": "indian", "rating": 4.2, "address": "407 Sawdust Rd, The Woodlands, TX 77380", "lat": 30.1465, "lng": -95.4599},
    {"name": "Amerigo's Grille", "cuisine": "italian", "rating": 4.5, "address": "25250 Grogan's Park Dr, The Woodlands, TX 77380", "lat": 30.1424, "lng": -95.4573},
    {"name": "Pappadeaux Seafood Kitchen (The Woodlands)", "cuisine": "creole", "rating": 4.5, "address": "18165 I-45 South, Conroe, TX 77385", "lat": 30.2011, "lng": -95.4583},
    {"name": "Aki Steak & Sushi", "cuisine": "japanese", "rating": 4.4, "address": "510 TX-6, Sugar Land, TX 77479", "lat": 29.5886, "lng": -95.6375},
    {"name": "Naseeb Indian Restaurant", "cuisine": "indian", "rating": 4.5, "address": "3559 Hwy 6, Sugar Land, TX 77478", "lat": 29.6264, "lng": -95.6379},
    {"name": "The Nines Thai Cuisine", "cuisine": "thai", "rating": 4.6, "address": "203 Century Square Blvd, Sugar Land, TX 77478", "lat": 29.6208, "lng": -95.6269},
    {"name": "Cafe Goo Goo Yen", "cuisine": "chinese", "rating": 4.3, "address": "1730 Williams Trace Blvd, Sugar Land, TX 77478", "lat": 29.6051, "lng": -95.6325},
    {"name": "Tempura Grill", "cuisine": "pakistani", "rating": 4.2, "address": "16305 Kensington Dr, Sugar Land, TX 77479", "lat": 29.6105, "lng": -95.6395},
    {"name": "Pearland & Baytown Seafood", "cuisine": "seafood", "rating": 4.4, "address": "129 W Parkwood Ave, Friendswood, TX 77546", "lat": 29.5805, "lng": -95.2016},
    {"name": "All Season Seafood", "cuisine": "seafood", "rating": 4.3, "address": "8201 Broadway St, Pearland, TX 77581", "lat": 29.5691, "lng": -95.2754},
    {"name": "Tang's Kitchen", "cuisine": "chinese", "rating": 4.5, "address": "2975 Kingsley Dr, Pearland, TX 77584", "lat": 29.5532, "lng": -95.3458},
    {"name": "Pearl Dynasty", "cuisine": "chinese", "rating": 4.4, "address": "8321 Broadway St, Pearland, TX 77581", "lat": 29.5682, "lng": -95.2771},
    {"name": "Steamboat Bill's", "cuisine": "cajun", "rating": 4.3, "address": "1134 N Main St, Pearland, TX 77581", "lat": 29.5746, "lng": -95.2891},
    {"name": "Ploy Thai Cuisine", "cuisine": "thai", "rating": 4.5, "address": "9561 Jones Rd, Houston, TX 77065", "lat": 29.8943, "lng": -95.5928},
    {"name": "Casa Maria Mexican Restaurant", "cuisine": "mexican", "rating": 4.4, "address": "3811 N Fry Rd, Katy, TX 77449", "lat": 29.8339, "lng": -95.7089},
    {"name": "Lozano's Mexican Restaurant", "cuisine": "mexican", "rating": 4.5, "address": "1251 Pin Oak Rd, Katy, TX 77494", "lat": 29.7825, "lng": -95.7865},
    {"name": "Babin's Seafood House", "cuisine": "cajun", "rating": 4.3, "address": "21851 Katy Fwy, Katy, TX 77450", "lat": 29.7828, "lng": -95.7504},
    {"name": "Crawfish Cafe", "cuisine": "cajun", "rating": 4.5, "address": "24330 US-290, Cypress, TX 77429", "lat": 29.9575, "lng": -95.6792},
    {"name": "Cypress Station Grill", "cuisine": "american", "rating": 4.3, "address": "26010 Hempstead Rd, Cypress, TX 77429", "lat": 29.9675, "lng": -95.6981},
    {"name": "King of India", "cuisine": "indian", "rating": 4.4, "address": "25250 Northwest Fwy, Cypress, TX 77429", "lat": 29.9621, "lng": -95.6914},
    {"name": "Galiana's Tex-Mex", "cuisine": "mexican", "rating": 4.5, "address": "24110 US-290, Cypress, TX 77429", "lat": 29.9554, "lng": -95.6766},
    {"name": "The Red Brick Tavern", "cuisine": "american", "rating": 4.5, "address": "119 Simonton St, Conroe, TX 77301", "lat": 30.3133, "lng": -95.4571},
    {"name": "Kuntry Katfish", "cuisine": "seafood", "rating": 4.4, "address": "5901 W Davis St, Conroe, TX 77304", "lat": 30.3235, "lng": -95.5323},
    {"name": "Pacific Yard House", "cuisine": "american", "rating": 4.3, "address": "101 Metcalf St, Conroe, TX 77301", "lat": 30.3101, "lng": -95.4566},
    {"name": "Walk-On's Sports Bistreaux", "cuisine": "cajun", "rating": 4.2, "address": "1000 Outpost Dr, Conroe, TX 77304", "lat": 30.3421, "lng": -95.4955},
    {"name": "Kitchen Tales", "cuisine": "american", "rating": 4.6, "address": "449 S Loop 336 W, Conroe, TX 77304", "lat": 30.2933, "lng": -95.4951},
    {"name": "Joe Lee's Seafood Kitchen", "cuisine": "seafood", "rating": 4.5, "address": "1108 Marina Bay Dr, Kemah, TX 77565", "lat": 29.5447, "lng": -95.0211},
    {"name": "Asian Fusion", "cuisine": "asian", "rating": 4.4, "address": "6640 South Shore Blvd, League City, TX 77573", "lat": 29.5352, "lng": -95.1221},
    {"name": "Cafe Petra", "cuisine": "mediterranean", "rating": 4.6, "address": "2800 Marina Bay Dr, League City, TX 77573", "lat": 29.5298, "lng": -95.0645},
    {"name": "Ocean Sushi & Grill", "cuisine": "japanese", "rating": 4.5, "address": "3020 Marina Bay Dr, League City, TX 77573", "lat": 29.5284, "lng": -95.0673},
    {"name": "Baytown Seafood Restaurant", "cuisine": "seafood", "rating": 4.3, "address": "3324 Spencer Hwy, Pasadena, TX 77504", "lat": 29.6582, "lng": -95.2391},
    {"name": "Ichibon Sushi & Steakhouse", "cuisine": "japanese", "rating": 4.5, "address": "4908 Fairmont Pkwy, Pasadena, TX 77505", "lat": 29.6381, "lng": -95.1762},
    {"name": "La Playita Bar & Grill", "cuisine": "mexican", "rating": 4.2, "address": "906 Pasadena Blvd, Pasadena, TX 77506", "lat": 29.6974, "lng": -95.2281},
    {"name": "Sudie's Catfish House", "cuisine": "seafood", "rating": 4.4, "address": "4910 Spencer Hwy, Pasadena, TX 77505", "lat": 29.6358, "lng": -95.1743},
    {"name": "La Fonda Taqueria", "cuisine": "mexican", "rating": 4.3, "address": "514 Richey St, Pasadena, TX 77506", "lat": 29.6951, "lng": -95.2078},
    {"name": "Fish Place", "cuisine": "seafood", "rating": 4.4, "address": "4609 Garth Rd, Baytown, TX 77521", "lat": 29.7745, "lng": -95.0189},
    {"name": "Floyd's Seafood", "cuisine": "cajun", "rating": 4.5, "address": "1101 W Main St, Mont Belvieu, TX 77523", "lat": 29.8553, "lng": -94.8692},
    {"name": "Shogun Japanese Grill & Sushi Bar", "cuisine": "japanese", "rating": 4.3, "address": "5075 Garth Rd, Baytown, TX 77521", "lat": 29.7821, "lng": -95.0194},
    {"name": "Pipeline Grill", "cuisine": "american", "rating": 4.4, "address": "4501 N Main St, Baytown, TX 77521", "lat": 29.7731, "lng": -94.9961},
    {"name": "Bibi's House of Kabob", "cuisine": "persian", "rating": 4.5, "address": "3121 Center St, Deer Park, TX 77536", "lat": 29.6917, "lng": -95.1199},
    {"name": "The Brisket House", "cuisine": "bbq", "rating": 4.1, "address": "3217 Center St, Deer Park, TX 77536", "lat": 29.6914, "lng": -95.1209},
    {"name": "The Republic Grill", "cuisine": "american", "rating": 4.3, "address": "1600 Georgia Ave, Deer Park, TX 77536", "lat": 29.6991, "lng": -95.1325},
    {"name": "Antonio's Italian Grill", "cuisine": "italian", "rating": 4.4, "address": "2727 Center St, Deer Park, TX 77536", "lat": 29.6946, "lng": -95.1165},
    {"name": "China Han", "cuisine": "chinese", "rating": 4.3, "address": "307 W Parkwood Ave, Friendswood, TX 77546", "lat": 29.5802, "lng": -95.2045},
    {"name": "Pho Yen", "cuisine": "vietnamese", "rating": 4.5, "address": "1612 S Friendswood Dr, Friendswood, TX 77546", "lat": 29.5085, "lng": -95.1981},
    {"name": "Stefano's Italian Kitchen", "cuisine": "italian", "rating": 4.4, "address": "106 S Friendswood Dr, Friendswood, TX 77546", "lat": 29.5186, "lng": -95.1973},
    {"name": "Gaido's Seafood Restaurant", "cuisine": "seafood", "rating": 4.5, "address": "3802 Seawall Blvd, Galveston, TX 77550", "lat": 29.2842, "lng": -94.8092},
    {"name": "Saltwater Grill", "cuisine": "seafood", "rating": 4.6, "address": "2017 Postoffice St, Galveston, TX 77550", "lat": 29.303, "lng": -94.7919},
    {"name": "Fisherman's Wharf", "cuisine": "seafood", "rating": 4.3, "address": "2200 Harborside Dr, Galveston, TX 77550", "lat": 29.3175, "lng": -94.7865},
    {"name": "Willie G's Seafood", "cuisine": "seafood", "rating": 4.4, "address": "2100 Harborside Dr, Galveston, TX 77550", "lat": 29.3168, "lng": -94.7879},
    {"name": "Fish Tales", "cuisine": "seafood", "rating": 4.2, "address": "2502 Seawall Blvd, Galveston, TX 77550", "lat": 29.2908, "lng": -94.7997},
    {"name": "Salsa's Mexican Restaurant", "cuisine": "mexican", "rating": 4.3, "address": "4604 Seawall Blvd, Galveston, TX 77551", "lat": 29.2731, "lng": -94.8273},
    {"name": "Lake Jackson Seafood", "cuisine": "seafood", "rating": 4.3, "address": "466 Plantation Dr, Lake Jackson, TX 77566", "lat": 29.0494, "lng": -95.4412},
    {"name": "Tokyo Japanese Steakhouse & Sushi Bar", "cuisine": "japanese", "rating": 4.4, "address": "602 Highway 332, Lake Jackson, TX 77566", "lat": 29.0345, "lng": -95.4532},
    {"name": "The Grape Taste", "cuisine": "american", "rating": 4.5, "address": "125 That Way St, Lake Jackson, TX 77566", "lat": 29.0371, "lng": -95.4563},
    {"name": "El Toro Mexican Restaurant", "cuisine": "mexican", "rating": 4.2, "address": "813 W Plantation Dr, Clute, TX 77531", "lat": 29.0211, "lng": -95.4055},
    {"name": "Poly-Pop", "cuisine": "hawaiian", "rating": 4.6, "address": "213 W Way, Lake Jackson, TX 77566", "lat": 29.0378, "lng": -95.4581},
    {"name": "Main 101 Grill & Bar", "cuisine": "american", "rating": 4.5, "address": "101 E Main St, La Porte, TX 77571", "lat": 29.6643, "lng": -95.0195},
    {"name": "Ed's Bistro", "cuisine": "american", "rating": 4.6, "address": "102 W Main St, La Porte, TX 77571", "lat": 29.6645, "lng": -95.0203},
    {"name": "Southern Komfort Kitchen", "cuisine": "american", "rating": 4.4, "address": "2501 S Broadway St, La Porte, TX 77571", "lat": 29.6431, "lng": -95.0345},
    {"name": "Happy Crazy Cajun", "cuisine": "cajun", "rating": 4.3, "address": "129 N 10th St, La Porte, TX 77571", "lat": 29.6672, "lng": -95.0321},
    {"name": "Ninfa's", "cuisine": "mexican", "rating": 4.4, "address": "5730 Hwy 6, Missouri City, TX 77459", "lat": 29.5891, "lng": -95.5562},
    {"name": "Baytown Seafood Restaurant", "cuisine": "seafood", "rating": 4.2, "address": "2409 FM 1092 Rd, Missouri City, TX 77459", "lat": 29.5968, "lng": -95.5781},
    {"name": "Happy Crab", "cuisine": "cajun", "rating": 4.3, "address": "5418 Hwy 6, Missouri City, TX 77459", "lat": 29.5946, "lng": -95.5521},
    {"name": "Micheaux's Southern Cuisine", "cuisine": "southern", "rating": 4.5, "address": "6850 Hwy 6, Missouri City, TX 77459", "lat": 29.5782, "lng": -95.5651},
    {"name": "Orient Cafe", "cuisine": "asian", "rating": 4.1, "address": "3340 FM 1092 Rd, Missouri City, TX 77459", "lat": 29.5889, "lng": -95.5893},
    {"name": "Bull Creek Cafe & Grill", "cuisine": "american", "rating": 4.5, "address": "918 San Jacinto St, Rosenberg, TX 77471", "lat": 29.5574, "lng": -95.8078},
    {"name": "T. Jin China Diner", "cuisine": "chinese", "rating": 4.3, "address": "24301 Brazos Town Crossing #700, Rosenberg, TX 77471", "lat": 29.5311, "lng": -95.7752},
    {"name": "Schulze's Bar-B-Q", "cuisine": "bbq", "rating": 4.4, "address": "1214 1st St, Rosenberg, TX 77471", "lat": 29.5539, "lng": -95.8091},
    {"name": "The Burger Barn", "cuisine": "american", "rating": 4.6, "address": "1101 Damon St, Rosenberg, TX 77471", "lat": 29.5447, "lng": -95.8066},
    {"name": "Back Street Barbeque", "cuisine": "bbq", "rating": 4.2, "address": "1909 Avenue G, Rosenberg, TX 77471", "lat": 29.5593, "lng": -95.8005},
    {"name": "The Crab Trap", "cuisine": "seafood", "rating": 4.5, "address": "1652 County Rd 201, Bay City, TX 77414", "lat": 28.9811, "lng": -95.9689},
    {"name": "Fish Spot", "cuisine": "seafood", "rating": 4.3, "address": "4009 20th St N, Texas City, TX 77590", "lat": 29.4078, "lng": -94.9312},
    {"name": "Johnny's Seafood Cafe", "cuisine": "seafood", "rating": 4.4, "address": "2906 FM 1765, Texas City, TX 77590", "lat": 29.3951, "lng": -94.9453},
    {"name": "Fish City Grill", "cuisine": "seafood", "rating": 4.2, "address": "3101 Palmer Hwy, Texas City, TX 77590", "lat": 29.3855, "lng": -94.9328},
    {"name": "Taqueria Vallarta", "cuisine": "mexican", "rating": 4.3, "address": "2130 Palmer Hwy, Texas City, TX 77590", "lat": 29.3917, "lng": -94.9221},
    {"name": "Sitar Cuisine of India", "cuisine": "indian", "rating": 4.5, "address": "25701 Interstate Hwy 45 #12, Spring, TX 77380", "lat": 30.1478, "lng": -95.4411},
    {"name": "Main Moon Asian Bistro", "cuisine": "asian", "rating": 4.3, "address": "2129 FM 2920 Rd, Spring, TX 77388", "lat": 30.0811, "lng": -95.4832},
    {"name": "Spring Asian Cuisine", "cuisine": "asian", "rating": 4.4, "address": "2907 Rayford Rd #106, Spring, TX 77386", "lat": 30.1287, "lng": -95.4021},
    {"name": "The Olive Oil Restaurant", "cuisine": "greek", "rating": 4.6, "address": "373 Sawdust Rd, Spring, TX 77380", "lat": 30.1456, "lng": -95.4579},
    {"name": "Shogun Japanese Grill & Sushi Bar", "cuisine": "japanese", "rating": 4.3, "address": "3532 Harmony Commons Dr, Spring, TX 77386", "lat": 30.1345, "lng": -95.3812},
    {"name": "Las Cascadas Mexican Restaurant", "cuisine": "mexican", "rating": 4.2, "address": "250 Cypresswood Dr, Spring, TX 77388", "lat": 30.0543, "lng": -95.4412},
    {"name": "La Brisa Mexican Bar + Grill", "cuisine": "mexican", "rating": 4.4, "address": "5822 FM 1960 E, Atascocita, TX 77346", "lat": 29.9881, "lng": -95.1812},
    {"name": "Four Wind Asian Bistro", "cuisine": "asian", "rating": 4.3, "address": "9441 FM 1960 Bypass Rd W, Humble, TX 77338", "lat": 29.9889, "lng": -95.2536},
    {"name": "Marsala's Italian Grill", "cuisine": "italian", "rating": 4.5, "address": "18321 W Lake Houston Pkwy, Atascocita, TX 77346", "lat": 29.9721, "lng": -95.1581},
    {"name": "Asian City Restaurant", "cuisine": "asian", "rating": 4.2, "address": "20205 Highway 59 N, Humble, TX 77338", "lat": 30.0156, "lng": -95.2678},
    {"name": "Las Flores Mexican Restaurant", "cuisine": "mexican", "rating": 4.3, "address": "14243 Stuebner Airline Rd, Houston, TX 77069", "lat": 30.0123, "lng": -95.4987},
    {"name": "Village Pizza & Seafood", "cuisine": "pizza", "rating": 4.2, "address": "777 Sheldon Rd, Channelview, TX 77530", "lat": 29.8051, "lng": -95.1211},
    {"name": "Monument Inn", "cuisine": "seafood", "rating": 4.6, "address": "4406 Independence Pkwy S, La Porte, TX 77571", "lat": 29.7711, "lng": -95.0518},
    {"name": "Floyd's Mont Belvieu", "cuisine": "cajun", "rating": 4.5, "address": "1101 W Main St, Mont Belvieu, TX 77523", "lat": 29.8553, "lng": -94.8692},
    {"name": "The Lost Cajun", "cuisine": "cajun", "rating": 4.4, "address": "1201 S Main St, Channelview, TX 77530", "lat": 29.7789, "lng": -95.1098},
    {"name": "Mi Rancho Mexican Grill & Bar", "cuisine": "mexican", "rating": 4.3, "address": "6914 S Texas 6, Houston, TX 77083", "lat": 29.7041, "lng": -95.6518},
    {"name": "Biryani Pot", "cuisine": "indian", "rating": 4.5, "address": "6509 Westheimer Rd, Houston, TX 77057", "lat": 29.7378, "lng": -95.4981},
    {"name": "King of India", "cuisine": "indian", "rating": 4.4, "address": "25250 Northwest Fwy, Cypress, TX 77429", "lat": 29.9621, "lng": -95.6914},
    {"name": "Thai Cottage", "cuisine": "thai", "rating": 4.2, "address": "14092 Southwest Fwy, Sugar Land, TX 77478", "lat": 29.6385, "lng": -95.6021},
    {"name": "Pho-jita", "cuisine": "thai", "rating": 4.6, "address": "11910 S Texas 6, Sugar Land, TX 77498", "lat": 29.6455, "lng": -95.6499},
    {"name": "Green Bawarchi", "cuisine": "indian", "rating": 4.8, "address": "4020 FM 1463 Rd, Fulshear, TX 77494", "lat": 29.7133, "lng": -95.7891},
    {"name": "Tikka Temple", "cuisine": "indian", "rating": 4.7, "address": "1315 Grand Pkwy #116A, Katy, TX 77494", "lat": 29.7261, "lng": -95.7458},
    {"name": "Tandoori Grill", "cuisine": "indian", "rating": 4.6, "address": "2002 N Fry Rd #103, Houston, TX 77084", "lat": 29.8164, "lng": -95.7092},
    {"name": "Toyama Sushi & Ramen", "cuisine": "japanese", "rating": 4.6, "address": "1433 FM 1463 Rd #600, Katy, TX 77494", "lat": 29.7147, "lng": -95.7883},
    {"name": "Thaicoon Restaurant & Pub", "cuisine": "thai", "rating": 4.5, "address": "1223 Grand West Blvd B101, Katy, TX 77449", "lat": 29.7391, "lng": -95.7251},
    {"name": "Local Table", "cuisine": "american", "rating": 4.6, "address": "23501 Cinco Ranch Blvd #Q120, Katy, TX 77494", "lat": 29.7384, "lng": -95.7589},
    {"name": "Perry's Steakhouse & Grille (Katy)", "cuisine": "american", "rating": 4.5, "address": "23501 Cinco Ranch Blvd #P100, Katy, TX 77494", "lat": 29.7387, "lng": -95.7591},
    {"name": "The Rouxpour", "cuisine": "cajun", "rating": 4.4, "address": "23501 Cinco Ranch Blvd #P160, Katy, TX 77494", "lat": 29.7389, "lng": -95.7593},
    {"name": "Black Walnut Cafe", "cuisine": "american", "rating": 4.3, "address": "23501 Cinco Ranch Blvd #P130, Katy, TX 77494", "lat": 29.7385, "lng": -95.7592},
    {"name": "Newk's Eatery", "cuisine": "american", "rating": 4.2, "address": "23501 Cinco Ranch Blvd #P140, Katy, TX 77494", "lat": 29.7388, "lng": -95.7594},
    {"name": "Escalante's Fine Tex-Mex", "cuisine": "mexican", "rating": 4.5, "address": "23501 Cinco Ranch Blvd #R110, Katy, TX 77494", "lat": 29.7382, "lng": -95.7587},
    {"name": "Mo's Irish Pub", "cuisine": "irish", "rating": 4.4, "address": "23001 Cinco Ranch Blvd #130, Katy, TX 77494", "lat": 29.7358, "lng": -95.7566},
    {"name": "Sake Japanese Steakhouse", "cuisine": "japanese", "rating": 4.3, "address": "3720 FM 1463 Rd, Katy, TX 77494", "lat": 29.7228, "lng": -95.7512},
    {"name": "Kirby Ice House Katy", "cuisine": "american", "rating": 4.4, "address": "25405 Kingsland Blvd, Katy, TX 77494", "lat": 29.7695, "lng": -95.7845},
    {"name": "Brenner's Steakhouse", "cuisine": "american", "rating": 4.5, "address": "10911 Katy Fwy, Houston, TX 77079", "lat": 29.7828, "lng": -95.6589},
    {"name": "Whiskey Cake Kitchen & Bar (Katy)", "cuisine": "american", "rating": 4.4, "address": "23501 Cinco Ranch Blvd #R120, Katy, TX 77494", "lat": 29.7381, "lng": -95.7588},
    {"name": "District 7 Grill", "cuisine": "american", "rating": 4.3, "address": "777 S Fry Rd #400, Katy, TX 77450", "lat": 29.7659, "lng": -95.7089},
    {"name": "Whataburger #950", "cuisine": "american", "rating": 4.2, "address": "23540 Westheimer Pkwy, Katy, TX 77494", "lat": 29.7384, "lng": -95.7658},
    {"name": "Whataburger #1263", "cuisine": "american", "rating": 4.2, "address": "9822 Gaston Rd, Katy, TX 77494", "lat": 29.7521, "lng": -95.7284},
    {"name": "Whataburger #392", "cuisine": "american", "rating": 4.2, "address": "307 S Mason Rd, Katy, TX 77450", "lat": 29.7659, "lng": -95.7089},
    {"name": "CAVA", "cuisine": "mediterranean", "rating": 4.5, "address": "1641 Greenhouse Rd #400, Houston, TX 77084", "lat": 29.8164, "lng": -95.7092},
    {"name": "CAVA Cinco Ranch", "cuisine": "mediterranean", "rating": 4.5, "address": "2643 Commercial Center Blvd #C300, Katy, TX 77494", "lat": 29.7384, "lng": -95.7589},
    {"name": "Salata Salad Kitchen", "cuisine": "salads", "rating": 4.3, "address": "23501 Cinco Ranch Blvd #P150, Katy, TX 77494", "lat": 29.7386, "lng": -95.7595},
    {"name": "Piada Italian Street Food", "cuisine": "italian", "rating": 4.4, "address": "1930 Highway 6, Sugar Land, TX 77478", "lat": 29.6385, "lng": -95.6021},
    {"name": "In-N-Out Burger", "cuisine": "american", "rating": 4.6, "address": "1010 Katy-Fort Bend Rd, Katy, TX 77493", "lat": 29.7284, "lng": -95.7458},
    {"name": "Redfish Seafood Grill", "cuisine": "seafood", "rating": 4.7, "address": "19550 TX-249, Houston, TX 77070", "lat": 30.0589, "lng": -95.4673},
    {"name": "King of India (Cypress)", "cuisine": "indian", "rating": 4.5, "address": "25250 Northwest Fwy #190, Cypress, TX 77429", "lat": 29.9621, "lng": -95.6914},
    {"name": "Red Dot Cuisine", "cuisine": "indian", "rating": 4.4, "address": "5218 Louetta Rd, Houston, TX 77070", "lat": 30.0123, "lng": -95.4987},
    {"name": "Louisiana Fish House (Spring Cypress)", "cuisine": "cajun", "rating": 4.3, "address": "12603 Spring Cypress Rd, Cypress, TX 77429", "lat": 30.0125, "lng": -95.6234},
    {"name": "Louisiana Fish House (Pinehurst)", "cuisine": "cajun", "rating": 4.3, "address": "5611 Treaschwig Rd, Spring, TX 77373", "lat": 30.1234, "lng": -95.4956},
    {"name": "Louisiana Fish House (Magnolia)", "cuisine": "cajun", "rating": 4.3, "address": "32905 FM 2978, Magnolia, TX 77354", "lat": 30.2145, "lng": -95.7234},
    {"name": "Louisiana Fish House (Crosstimbers)", "cuisine": "cajun", "rating": 4.3, "address": "7979 Spring Cypress Rd, Spring, TX 77379", "lat": 30.0456, "lng": -95.5678},
    {"name": "Super Yummy Mongolian Stir-Fry", "cuisine": "asian", "rating": 4.4, "address": "14257 FM 2920 #160, Tomball, TX 77377", "lat": 30.0934, "lng": -95.6159},
    {"name": "China One", "cuisine": "chinese", "rating": 4.2, "address": "10850 Spring Cypress Rd, Cypress, TX 77429", "lat": 30.0123, "lng": -95.6234},
    {"name": "Locatelli's Italian Restaurant", "cuisine": "italian", "rating": 4.6, "address": "5218 Grant Rd, Cypress, TX 77429", "lat": 29.9987, "lng": -95.6789},
    {"name": "Lama Mediterranean Cuisine", "cuisine": "mediterranean", "rating": 4.5, "address": "1644 Research Forest Dr #100, The Woodlands, TX 77381", "lat": 30.1793, "lng": -95.4665},
    {"name": "Lama Mediterranean Cuisine (Conroe)", "cuisine": "mediterranean", "rating": 4.5, "address": "721 SH-105 E, Conroe, TX 77301", "lat": 30.3201, "lng": -95.4512},
    {"name": "Yummy Tummy", "cuisine": "american", "rating": 4.3, "address": "241 FM 1960 Bypass Rd E, Humble, TX 77338", "lat": 30.0156, "lng": -95.2678},
    {"name": "McDonald's (Katy)", "cuisine": "fast food", "rating": 4.1, "address": "23540 Westheimer Pkwy, Katy, TX 77494", "lat": 29.7384, "lng": -95.7658},
    {"name": "McDonald's (Pearland)", "cuisine": "fast food", "rating": 4.1, "address": "2727 Bay Area Blvd, Houston, TX 77058", "lat": 29.5583, "lng": -95.0889},
    {"name": "McDonald's (Sugar Land)", "cuisine": "fast food", "rating": 4.1, "address": "10890 S Sam Houston Pkwy W, Houston, TX 77031", "lat": 29.6521, "lng": -95.5493},
    {"name": "McDonald's (Cypress)", "cuisine": "fast food", "rating": 4.1, "address": "13255 Jones Rd, Houston, TX 77070", "lat": 30.0234, "lng": -95.5674},
    {"name": "McDonald's (Spring)", "cuisine": "fast food", "rating": 4.1, "address": "9452 Jones Rd, Houston, TX 77065", "lat": 29.9943, "lng": -95.5678},
    {"name": "McDonald's (Humble)", "cuisine": "fast food", "rating": 4.1, "address": "20410 Hwy 59 N, Humble, TX 77338", "lat": 30.0156, "lng": -95.2678},
    {"name": "McDonald's (The Woodlands)", "cuisine": "fast food", "rating": 4.1, "address": "1717 Lake Woodlands Dr, The Woodlands, TX 77380", "lat": 30.1661, "lng": -95.4646},
    {"name": "Chick-fil-A (Katy)", "cuisine": "fast food", "rating": 4.5, "address": "23501 Cinco Ranch Blvd, Katy, TX 77494", "lat": 29.7384, "lng": -95.7589},
    {"name": "Chick-fil-A (Sugar Land)", "cuisine": "fast food", "rating": 4.5, "address": "2260 Lone Star Dr, Sugar Land, TX 77479", "lat": 29.6201, "lng": -95.6262},
    {"name": "Chick-fil-A (Pearland)", "cuisine": "fast food", "rating": 4.5, "address": "11470 Broadway St, Pearland, TX 77584", "lat": 29.5492, "lng": -95.3789},
    {"name": "Chick-fil-A (The Woodlands)", "cuisine": "fast food", "rating": 4.5, "address": "6700 Woodlands Pkwy, The Woodlands, TX 77382", "lat": 30.1764, "lng": -95.5393},
    {"name": "Taco Bell (Katy)", "cuisine": "fast food", "rating": 3.9, "address": "777 S Fry Rd, Katy, TX 77450", "lat": 29.7659, "lng": -95.7089},
    {"name": "Taco Bell (Sugar Land)", "cuisine": "fast food", "rating": 3.9, "address": "1930 Highway 6, Sugar Land, TX 77478", "lat": 29.6385, "lng": -95.6021},
    {"name": "Taco Bell (Cypress)", "cuisine": "fast food", "rating": 3.9, "address": "25250 Northwest Fwy, Cypress, TX 77429", "lat": 29.9621, "lng": -95.6914},
    {"name": "Burger King (Katy)", "cuisine": "fast food", "rating": 3.8, "address": "1010 Katy-Fort Bend Rd, Katy, TX 77493", "lat": 29.7284, "lng": -95.7458},
    {"name": "Burger King (Pearland)", "cuisine": "fast food", "rating": 3.8, "address": "3613 E Broadway St, Pearland, TX 77581", "lat": 29.5638, "lng": -95.2393},
    {"name": "KFC (Sugar Land)", "cuisine": "fast food", "rating": 3.7, "address": "510 TX-6, Sugar Land, TX 77479", "lat": 29.5886, "lng": -95.6375},
    {"name": "KFC (Humble)", "cuisine": "fast food", "rating": 3.7, "address": "20410 Hwy 59 N, Humble, TX 77338", "lat": 30.0156, "lng": -95.2678},
    {"name": "Subway (Katy)", "cuisine": "fast food", "rating": 4.0, "address": "23501 Cinco Ranch Blvd, Katy, TX 77494", "lat": 29.7384, "lng": -95.7589},
    {"name": "Subway (Pearland)", "cuisine": "fast food", "rating": 4.0, "address": "9415 Broadway St, Pearland, TX 77584", "lat": 29.5492, "lng": -95.3789},
    {"name": "Subway (The Woodlands)", "cuisine": "fast food", "rating": 4.0, "address": "1900 Hughes Landing Blvd, The Woodlands, TX 77380", "lat": 30.1601, "lng": -95.4673},
    {"name": "Popeyes (Katy)", "cuisine": "fast food", "rating": 4.0, "address": "3720 FM 1463 Rd, Katy, TX 77494", "lat": 29.7228, "lng": -95.7512},
    {"name": "Popeyes (Cypress)", "cuisine": "fast food", "rating": 4.0, "address": "28320 Highway 290, Cypress, TX 77433", "lat": 29.9575, "lng": -95.6792},
    {"name": "Sonic Drive-In (Katy)", "cuisine": "fast food", "rating": 3.9, "address": "25405 Kingsland Blvd, Katy, TX 77494", "lat": 29.7695, "lng": -95.7845},
    {"name": "Sonic Drive-In (Pearland)", "cuisine": "fast food", "rating": 3.9, "address": "8201 Broadway St, Pearland, TX 77581", "lat": 29.5691, "lng": -95.2754},
    {"name": "Jack in the Box (Conroe)", "cuisine": "fast food", "rating": 3.8, "address": "1000 Outpost Dr, Conroe, TX 77304", "lat": 30.3421, "lng": -95.4955},
    {"name": "Jack in the Box (Galveston)", "cuisine": "fast food", "rating": 3.8, "address": "4604 Seawall Blvd, Galveston, TX 77551", "lat": 29.2731, "lng": -94.8273},
    {"name": "Whataburger #893 (Downtown Houston)", "cuisine": "fast food", "rating": 4.2, "address": "1000 Main St STE T34, Houston, TX 77002", "lat": 29.7588, "lng": -95.3677},
    {"name": "Whataburger #597 (Post Oak)", "cuisine": "fast food", "rating": 4.2, "address": "10310 S Post Oak Rd, Houston, TX 77035", "lat": 29.6844, "lng": -95.4693},
    {"name": "Whataburger #138 (Gessner & I10)", "cuisine": "fast food", "rating": 4.2, "address": "1040 Gessner Rd, Houston, TX 77055", "lat": 29.7828, "lng": -95.5089},
    {"name": "Whataburger #723 (I45 & Airtex)", "cuisine": "fast food", "rating": 4.2, "address": "109 Airtex Dr, Houston, TX 77090", "lat": 30.0523, "lng": -95.3902},
    {"name": "Whataburger #1339 (FM 1960 & Jones)", "cuisine": "fast food", "rating": 4.2, "address": "11020 FM 1960 W, Houston, TX 77065", "lat": 29.9943, "lng": -95.5678},
    {"name": "Whataburger #1079 (Silber & Hartland)", "cuisine": "fast food", "rating": 4.2, "address": "1110 Silber Rd, Houston, TX 77055", "lat": 29.7834, "lng": -95.5123},
    {"name": "Whataburger #278 (Fuqua & Park Fuqua)", "cuisine": "fast food", "rating": 4.2, "address": "11116 Fuqua St, Houston, TX 77089", "lat": 29.5821, "lng": -95.2891},
    {"name": "Whataburger #1141 (Pearland Pkwy)", "cuisine": "fast food", "rating": 4.2, "address": "11510 Pearland Pkwy, Houston, TX 77089", "lat": 29.5893, "lng": -95.2754},
    {"name": "Whataburger #131 (I10 & Kirkwood)", "cuisine": "fast food", "rating": 4.2, "address": "12121 Katy Fwy, Houston, TX 77079", "lat": 29.7828, "lng": -95.6589},
    {"name": "Whataburger #833 (Westheimer & Shadowbriar)", "cuisine": "fast food", "rating": 4.2, "address": "12401 Westheimer Rd, Houston, TX 77077", "lat": 29.7447, "lng": -95.5912},
    {"name": "Whataburger #815 (249 & Antoine)", "cuisine": "fast food", "rating": 4.2, "address": "12424 Tomball Pkwy, Houston, TX 77086", "lat": 30.0589, "lng": -95.4673},
    {"name": "Whataburger #389 (Veterans & Black Pool)", "cuisine": "fast food", "rating": 4.2, "address": "12663 Veterans Memorial Dr, Houston, TX 77014", "lat": 29.8321, "lng": -95.3456},
    {"name": "Whataburger #605 (Hwy 290 & Hollister)", "cuisine": "fast food", "rating": 4.2, "address": "13270 Northwest Fwy, Houston, TX 77040", "lat": 29.8523, "lng": -95.5234},
    {"name": "Whataburger #431 (I10 & Market)", "cuisine": "fast food", "rating": 4.2, "address": "13728 East Fwy, Houston, TX 77015", "lat": 29.7634, "lng": -95.2891},
    {"name": "Whataburger #1081 (TX 8 & Lake Houston)", "cuisine": "fast food", "rating": 4.2, "address": "13933 E Sam Houston Pkwy N, Houston, TX 77044", "lat": 29.8634, "lng": -95.2345},
    {"name": "Whataburger #813 (Wallisville & Overland Park)", "cuisine": "fast food", "rating": 4.2, "address": "15329 Wallisville Rd, Houston, TX 77049", "lat": 29.8821, "lng": -95.1834},
    {"name": "Whataburger #142 (Cypress Creek)", "cuisine": "fast food", "rating": 4.2, "address": "1604 Cypress Creek Pkwy, Houston, TX 77090", "lat": 30.0189, "lng": -95.4234},
    {"name": "Whataburger #498 (Wayside & I10)", "cuisine": "fast food", "rating": 4.2, "address": "1700 N Wayside Dr, Houston, TX 77020", "lat": 29.7734, "lng": -95.3234},
    {"name": "Whataburger #196 (Loop 610 & 18th)", "cuisine": "fast food", "rating": 4.2, "address": "1718 West Loop N, Houston, TX 77008", "lat": 29.8091, "lng": -95.4124},
    {"name": "Whataburger #591 (Greenspoint & Beltway 8)", "cuisine": "fast food", "rating": 4.2, "address": "181 N Sam Houston Pkwy E, Houston, TX 77060", "lat": 29.9534, "lng": -95.3891},
    {"name": "Whataburger #601 (West Road & I45)", "cuisine": "fast food", "rating": 4.2, "address": "211 West Rd, Houston, TX 77038", "lat": 29.9823, "lng": -95.3456},
    {"name": "Whataburger #997 (Holcombe & Greenbriar)", "cuisine": "fast food", "rating": 4.2, "address": "2265 W Holcombe Blvd, Houston, TX 77030", "lat": 29.7123, "lng": -95.4234},
    {"name": "Whataburger #137 (Gessner & Hammerly)", "cuisine": "fast food", "rating": 4.2, "address": "2429 Gessner Rd, Houston, TX 77080", "lat": 29.8234, "lng": -95.5345},
    {"name": "Whataburger #324 (Treaschwig & FM 1960)", "cuisine": "fast food", "rating": 4.2, "address": "2627 FM 1960 Rd, Houston, TX 77073", "lat": 30.0456, "lng": -95.3789},
    {"name": "Whataburger #745 (Westheimer & Beltway 8)", "cuisine": "fast food", "rating": 4.2, "address": "2720 W Sam Houston Pkwy S, Houston, TX 77042", "lat": 29.7345, "lng": -95.5234},
    {"name": "Whataburger #263 (Chimney Rock)", "cuisine": "fast food", "rating": 4.2, "address": "2820 Chimney Rock Rd, Houston, TX 77056", "lat": 29.7456, "lng": -95.4567},
    {"name": "Whataburger #432 (Westpark & Hwy 6)", "cuisine": "fast food", "rating": 4.2, "address": "3530 Highway 6 S, Houston, TX 77082", "lat": 29.7123, "lng": -95.6234},
    {"name": "Whataburger #267 (Old Spanish Trail)", "cuisine": "fast food", "rating": 4.2, "address": "3624 Old Spanish Trl, Houston, TX 77021", "lat": 29.7234, "lng": -95.3567},
    {"name": "Whataburger #533 (Main & I45)", "cuisine": "fast food", "rating": 4.2, "address": "3636 N Main St, Houston, TX 77009", "lat": 29.7789, "lng": -95.3789},
    {"name": "Whataburger #266 (Westheimer & Timmons)", "cuisine": "fast food", "rating": 4.2, "address": "3639 Westheimer Rd, Houston, TX 77027", "lat": 29.7447, "lng": -95.4234},
    {"name": "Whataburger #271 (Shepherd & Farnham)", "cuisine": "fast food", "rating": 4.2, "address": "3712 S Shepherd Dr, Houston, TX 77098", "lat": 29.7345, "lng": -95.4123},
    {"name": "Whataburger #670 (I69 & Edloe)", "cuisine": "fast food", "rating": 4.2, "address": "3797 Southwest Fwy, Houston, TX 77027", "lat": 29.7234, "lng": -95.4567},
    {"name": "Whataburger #911 (I69 & Little York)", "cuisine": "fast food", "rating": 4.2, "address": "4040 Little York Rd, Houston, TX 77093", "lat": 29.8234, "lng": -95.3789},
    {"name": "Whataburger #134 (I45 & Little York)", "cuisine": "fast food", "rating": 4.2, "address": "444 W Little York Rd, Houston, TX 77076", "lat": 29.8345, "lng": -95.3456},
    {"name": "Whataburger #120 (I45 & Airline)", "cuisine": "fast food", "rating": 4.2, "address": "4545 North Fwy, Houston, TX 77022", "lat": 29.8123, "lng": -95.3234},
    {"name": "Whataburger #1169 (FM 1960 W)", "cuisine": "fast food", "rating": 4.2, "address": "4608 FM 1960 Rd W, Houston, TX 77069", "lat": 30.0123, "lng": -95.4567},
    {"name": "Whataburger #154 (Antoine & Hoover)", "cuisine": "fast food", "rating": 4.2, "address": "5050 Antoine Dr, Houston, TX 77092", "lat": 29.8456, "lng": -95.4234},
    {"name": "Whataburger #472 (Homma & Hwy 6)", "cuisine": "fast food", "rating": 4.2, "address": "5815 Highway 6 N, Houston, TX 77084", "lat": 29.8234, "lng": -95.6789},
    {"name": "Whataburger #265 (San Felipe & Winrock)", "cuisine": "fast food", "rating": 4.2, "address": "6405 San Felipe St, Houston, TX 77057", "lat": 29.7456, "lng": -95.4789},
    {"name": "Whataburger #694 (I69 & Hillcroft)", "cuisine": "fast food", "rating": 4.2, "address": "6520 Southwest Fwy, Houston, TX 77074", "lat": 29.7123, "lng": -95.5234},
    {"name": "Whataburger #733 (I45 & Woodridge)", "cuisine": "fast food", "rating": 4.2, "address": "6888 Gulf Fwy Ste 200, Houston, TX 77087", "lat": 29.6789, "lng": -95.2345},
    {"name": "Whataburger #264 (Harrisburg & S 69th)", "cuisine": "fast food", "rating": 4.2, "address": "6914 Harrisburg Blvd, Houston, TX 77011", "lat": 29.7345, "lng": -95.2789},
    {"name": "Whataburger #550 (Loop 610 & Homestead)", "cuisine": "fast food", "rating": 4.2, "address": "7001 North Loop E, Houston, TX 77028", "lat": 29.8234, "lng": -95.3456},
    {"name": "Whataburger #1144 (Southwest Fwy & Fondren)", "cuisine": "fast food", "rating": 4.2, "address": "7411 Southwest Fwy, Houston, TX 77074", "lat": 29.7123, "lng": -95.5678},
    {"name": "Whataburger #951 (Fort Bend Toll Rd)", "cuisine": "fast food", "rating": 4.2, "address": "7418 S Sam Houston Pkwy W, Houston, TX 77085", "lat": 29.6456, "lng": -95.5234},
    {"name": "Whataburger #518 (Bellfort & Braesridge)", "cuisine": "fast food", "rating": 4.2, "address": "7629 W Bellfort St, Houston, TX 77071", "lat": 29.6789, "lng": -95.5678},
    {"name": "Whataburger #1019 (Beechnut & Beltway 8)", "cuisine": "fast food", "rating": 4.2, "address": "8134 W Sam Houston Pkwy S, Houston, TX 77072", "lat": 29.7045, "lng": -95.5923},
    {"name": "Whataburger #712 (West Rd & Hwy 6)", "cuisine": "fast food", "rating": 4.2, "address": "8534 Highway 6 N, Houston, TX 77095", "lat": 29.8523, "lng": -95.6234},
    {"name": "Whataburger #459 (Clearwood & I45)", "cuisine": "fast food", "rating": 4.2, "address": "8927 Clearwood Dr, Houston, TX 77075", "lat": 29.6789, "lng": -95.3456},
    {"name": "Whataburger #141 (Long Point & Spring Branch)", "cuisine": "fast food", "rating": 4.2, "address": "8941 Long Point Rd, Houston, TX 77055", "lat": 29.8234, "lng": -95.5123},
    {"name": "Whataburger #89 (Loop 610 & Brinkman)", "cuisine": "fast food", "rating": 4.2, "address": "905 North Loop W, Houston, TX 77008", "lat": 29.8456, "lng": -95.4234},
    {"name": "Whataburger #986 (West & Beltway 8)", "cuisine": "fast food", "rating": 4.2, "address": "9232 W Sam Houston Pkwy N, Houston, TX 77064", "lat": 29.8789, "lng": -95.5678},
    {"name": "Whataburger #542 (Bissonnet & I69)", "cuisine": "fast food", "rating": 4.2, "address": "9517 Bissonnet St, Houston, TX 77036", "lat": 29.6789, "lng": -95.4567},
    {"name": "Whataburger #503 (Loop 610 & Main)", "cuisine": "fast food", "rating": 4.2, "address": "9955 Main St, Houston, TX 77025", "lat": 29.6936, "lng": -95.4234},
    {"name": "Whataburger (Sugar Land)", "cuisine": "fast food", "rating": 4.2, "address": "1930 Highway 6, Sugar Land, TX 77478", "lat": 29.6385, "lng": -95.6021},
    {"name": "Whataburger (Sugar Land Parkway)", "cuisine": "fast food", "rating": 4.2, "address": "16090 Southwest Fwy, Sugar Land, TX 77479", "lat": 29.5834, "lng": -95.6234},
    {"name": "Whataburger (Missouri City)", "cuisine": "fast food", "rating": 4.2, "address": "5730 Highway 6, Missouri City, TX 77459", "lat": 29.5891, "lng": -95.5562},
    {"name": "Whataburger (Pearland Town Center)", "cuisine": "fast food", "rating": 4.2, "address": "11200 Broadway St, Pearland, TX 77584", "lat": 29.5492, "lng": -95.3789},
    {"name": "Whataburger (League City)", "cuisine": "fast food", "rating": 4.2, "address": "2549 Gulf Fwy S, League City, TX 77573", "lat": 29.4834, "lng": -95.0956},
    {"name": "Whataburger (Friendswood)", "cuisine": "fast food", "rating": 4.2, "address": "702 W Parkwood Ave, Friendswood, TX 77546", "lat": 29.5805, "lng": -95.2016},
    {"name": "Whataburger (The Woodlands)", "cuisine": "fast food", "rating": 4.2, "address": "2755 FM 1488, Conroe, TX 77384", "lat": 30.1756, "lng": -95.4987},
    {"name": "Whataburger (Spring)", "cuisine": "fast food", "rating": 4.2, "address": "8723 Spring Cypress Rd, Spring, TX 77379", "lat": 30.0456, "lng": -95.5678},
    {"name": "Whataburger (Humble)", "cuisine": "fast food", "rating": 4.2, "address": "7516 FM 1960 Bypass Rd E, Humble, TX 77338", "lat": 30.0156, "lng": -95.2678},
    {"name": "Whataburger (Conroe)", "cuisine": "fast food", "rating": 4.2, "address": "1007 Loop 336 W, Conroe, TX 77301", "lat": 30.3133, "lng": -95.4571},
    {"name": "Whataburger (Baytown)", "cuisine": "fast food", "rating": 4.2, "address": "4520 Garth Rd, Baytown, TX 77521", "lat": 29.7745, "lng": -95.0189},
    {"name": "Whataburger (Pasadena)", "cuisine": "fast food", "rating": 4.2, "address": "4806 Spencer Hwy, Pasadena, TX 77505", "lat": 29.6358, "lng": -95.1743},
    {"name": "Whataburger (La Porte)", "cuisine": "fast food", "rating": 4.2, "address": "1902 Spencer Hwy, La Porte, TX 77571", "lat": 29.6643, "lng": -95.0195},
    {"name": "Whataburger (Deer Park)", "cuisine": "fast food", "rating": 4.2, "address": "2727 Center St, Deer Park, TX 77536", "lat": 29.6946, "lng": -95.1165},
    {"name": "Whataburger (Galveston)", "cuisine": "fast food", "rating": 4.2, "address": "5600 Seawall Blvd, Galveston, TX 77551", "lat": 29.2731, "lng": -94.8273},
    {"name": "Whataburger (Texas City)", "cuisine": "fast food", "rating": 4.2, "address": "2101 Palmer Hwy, Texas City, TX 77590", "lat": 29.3917, "lng": -94.9221},
    {"name": "Whataburger (Rosenberg)", "cuisine": "fast food", "rating": 4.2, "address": "27402 Southwest Fwy, Rosenberg, TX 77471", "lat": 29.5311, "lng": -95.7752},
    {"name": "CAVA (Greenhouse Road - Katy)", "cuisine": "mediterranean", "rating": 4.5, "address": "1641 Greenhouse Rd #400, Houston, TX 77084", "lat": 29.8164, "lng": -95.7092},
    {"name": "CAVA (Cinco Ranch - Katy)", "cuisine": "mediterranean", "rating": 4.5, "address": "2643 Commercial Center Blvd #C300, Katy, TX 77494", "lat": 29.7384, "lng": -95.7589},
    {"name": "CAVA (Sugar Land)", "cuisine": "mediterranean", "rating": 4.5, "address": "2260 Lone Star Dr, Sugar Land, TX 77479", "lat": 29.6201, "lng": -95.6262},
    {"name": "CAVA (The Woodlands)", "cuisine": "mediterranean", "rating": 4.5, "address": "9595 Six Pines Dr #1490, The Woodlands, TX 77380", "lat": 30.1741, "lng": -95.4641},
    {"name": "CAVA (Pearland)", "cuisine": "mediterranean", "rating": 4.5, "address": "11470 Broadway St #140, Pearland, TX 77584", "lat": 29.5492, "lng": -95.3789},
    {"name": "CAVA (Houston Heights)", "cuisine": "mediterranean", "rating": 4.5, "address": "250 W 20th St #400, Houston, TX 77008", "lat": 29.8091, "lng": -95.4124},
    {"name": "CAVA (Houston Washington)", "cuisine": "mediterranean", "rating": 4.5, "address": "4000 Washington Ave #101, Houston, TX 77007", "lat": 29.7699, "lng": -95.3776},
    {"name": "CAVA (Houston Medical Center)", "cuisine": "mediterranean", "rating": 4.5, "address": "6618 Fannin St, Houston, TX 77030", "lat": 29.7123, "lng": -95.3957},
    {"name": "CAVA (Houston Town & Country)", "cuisine": "mediterranean", "rating": 4.5, "address": "12850 Memorial Dr #1120, Houston, TX 77024", "lat": 29.7828, "lng": -95.4326},
    {"name": "CAVA (Houston Westchase)", "cuisine": "mediterranean", "rating": 4.5, "address": "2550 Citywest Blvd #600, Houston, TX 77042", "lat": 29.7345, "lng": -95.5234},
    {"name": "CAVA (Missouri City)", "cuisine": "mediterranean", "rating": 4.5, "address": "10407 Highway 6 #100, Missouri City, TX 77459", "lat": 29.5891, "lng": -95.5562},
    {"name": "CAVA (Spring)", "cuisine": "mediterranean", "rating": 4.5, "address": "2162 Spring Stuebner Rd Building C, Spring, TX 77389", "lat": 30.0811, "lng": -95.4832},
    {"name": "CAVA (Cypress)", "cuisine": "mediterranean", "rating": 4.5, "address": "28920 Highway 290 #H01, Cypress, TX 77433", "lat": 29.9575, "lng": -95.6792},
    {"name": "CAVA (Kingwood)", "cuisine": "mediterranean", "rating": 4.5, "address": "4505 Kingwood Dr #100, Kingwood, TX 77345", "lat": 29.9721, "lng": -95.1581},
    {"name": "CAVA (Vintage - Louetta)", "cuisine": "mediterranean", "rating": 4.5, "address": "10850 Louetta Rd #100, Houston, TX 77070", "lat": 30.0123, "lng": -95.4987},
    {"name": "Salata (Cinco Ranch - Katy)", "cuisine": "salads", "rating": 4.3, "address": "23501 Cinco Ranch Blvd #P150, Katy, TX 77494", "lat": 29.7386, "lng": -95.7595},
    {"name": "Salata (Sugar Land)", "cuisine": "salads", "rating": 4.3, "address": "2260 Lone Star Dr #120, Sugar Land, TX 77479", "lat": 29.6201, "lng": -95.6262},
    {"name": "Salata (Pearland)", "cuisine": "salads", "rating": 4.3, "address": "2570 Pearland Pkwy #102, Pearland, TX 77581", "lat": 29.5638, "lng": -95.2393},
    {"name": "Salata (The Woodlands)", "cuisine": "salads", "rating": 4.3, "address": "1900 Hughes Landing Blvd #140, The Woodlands, TX 77380", "lat": 30.1601, "lng": -95.4673},
    {"name": "Salata (Houston Center)", "cuisine": "salads", "rating": 4.3, "address": "1200 McKinney St, Houston, TX 77010", "lat": 29.7535, "lng": -95.3592},
    {"name": "Salata (Houston Memorial)", "cuisine": "salads", "rating": 4.3, "address": "12850 Memorial Dr #1130, Houston, TX 77024", "lat": 29.7828, "lng": -95.4326},
    {"name": "Salata (Houston Heights)", "cuisine": "salads", "rating": 4.3, "address": "250 W 20th St #390, Houston, TX 77008", "lat": 29.8091, "lng": -95.4124},
    {"name": "Salata (Cypress)", "cuisine": "salads", "rating": 4.3, "address": "28920 Highway 290 #J01, Cypress, TX 77433", "lat": 29.9575, "lng": -95.6792},
    {"name": "Salata (League City)", "cuisine": "salads", "rating": 4.3, "address": "2549 Gulf Fwy S #120, League City, TX 77573", "lat": 29.4834, "lng": -95.0956},
    {"name": "Salata (Friendswood)", "cuisine": "salads", "rating": 4.3, "address": "702 W Parkwood Ave #150, Friendswood, TX 77546", "lat": 29.5805, "lng": -95.2016},
    {"name": "Salata (Spring)", "cuisine": "salads", "rating": 4.3, "address": "8723 Spring Cypress Rd #160, Spring, TX 77379", "lat": 30.0456, "lng": -95.5678},
    {"name": "Salata (Missouri City)", "cuisine": "salads", "rating": 4.3, "address": "5730 Highway 6 #140, Missouri City, TX 77459", "lat": 29.5891, "lng": -95.5562},
    {"name": "Salata (Humble)", "cuisine": "salads", "rating": 4.3, "address": "7516 FM 1960 Bypass Rd E #130, Humble, TX 77338", "lat": 30.0156, "lng": -95.2678},
    {"name": "Salata (Conroe)", "cuisine": "salads", "rating": 4.3, "address": "1007 Loop 336 W #140, Conroe, TX 77301", "lat": 30.3133, "lng": -95.4571},
    {"name": "Salata (Baytown)", "cuisine": "salads", "rating": 4.3, "address": "4520 Garth Rd #150, Baytown, TX 77521", "lat": 29.7745, "lng": -95.0189},
    {"name": "Wendy's (Katy)", "cuisine": "fast food", "rating": 3.9, "address": "1010 Katy-Fort Bend Rd #120, Katy, TX 77493", "lat": 29.7284, "lng": -95.7458},
    {"name": "Wendy's (Sugar Land)", "cuisine": "fast food", "rating": 3.9, "address": "510 TX-6 #120, Sugar Land, TX 77479", "lat": 29.5886, "lng": -95.6375},
    {"name": "Wendy's (Pearland)", "cuisine": "fast food", "rating": 3.9, "address": "9415 Broadway St #120, Pearland, TX 77584", "lat": 29.5492, "lng": -95.3789},
    {"name": "Wendy's (The Woodlands)", "cuisine": "fast food", "rating": 3.9, "address": "1900 Hughes Landing Blvd #130, The Woodlands, TX 77380", "lat": 30.1601, "lng": -95.4673},
    {"name": "Wendy's (Cypress)", "cuisine": "fast food", "rating": 3.9, "address": "28320 Highway 290 #130, Cypress, TX 77433", "lat": 29.9575, "lng": -95.6792},
    {"name": "Wendy's (Spring)", "cuisine": "fast food", "rating": 3.9, "address": "8723 Spring Cypress Rd #130, Spring, TX 77379", "lat": 30.0456, "lng": -95.5678},
    {"name": "Wendy's (Humble)", "cuisine": "fast food", "rating": 3.9, "address": "20410 Hwy 59 N #130, Humble, TX 77338", "lat": 30.0156, "lng": -95.2678},
    {"name": "Wendy's (Conroe)", "cuisine": "fast food", "rating": 3.9, "address": "1000 Outpost Dr #130, Conroe, TX 77304", "lat": 30.3421, "lng": -95.4955},
    {"name": "Wendy's (Baytown)", "cuisine": "fast food", "rating": 3.9, "address": "4520 Garth Rd #130, Baytown, TX 77521", "lat": 29.7745, "lng": -95.0189},
    {"name": "Wendy's (Pasadena)", "cuisine": "fast food", "rating": 3.9, "address": "4806 Spencer Hwy #130, Pasadena, TX 77505", "lat": 29.6358, "lng": -95.1743},
    {"name": "Wendy's (League City)", "cuisine": "fast food", "rating": 3.9, "address": "2549 Gulf Fwy S #130, League City, TX 77573", "lat": 29.4834, "lng": -95.0956},
    {"name": "Wendy's (Friendswood)", "cuisine": "fast food", "rating": 3.9, "address": "702 W Parkwood Ave #130, Friendswood, TX 77546", "lat": 29.5805, "lng": -95.2016},
    {"name": "Wendy's (Galveston)", "cuisine": "fast food", "rating": 3.9, "address": "5600 Seawall Blvd #130, Galveston, TX 77551", "lat": 29.2731, "lng": -94.8273},
    {"name": "Wendy's (Texas City)", "cuisine": "fast food", "rating": 3.9, "address": "2101 Palmer Hwy #130, Texas City, TX 77590", "lat": 29.3917, "lng": -94.9221},
    {"name": "Wendy's (Rosenberg)", "cuisine": "fast food", "rating": 3.9, "address": "27402 Southwest Fwy #130, Rosenberg, TX 77471", "lat": 29.5311, "lng": -95.7752},
    {"name": "Wendy's (Missouri City)", "cuisine": "fast food", "rating": 3.9, "address": "5730 Highway 6 #130, Missouri City, TX 77459", "lat": 29.5891, "lng": -95.5562},
    {"name": "Pizza Hut (Katy)", "cuisine": "fast food", "rating": 3.8, "address": "777 S Fry Rd #140, Katy, TX 77450", "lat": 29.7659, "lng": -95.7089},
    {"name": "Pizza Hut (Sugar Land)", "cuisine": "fast food", "rating": 3.8, "address": "1930 Highway 6 #140, Sugar Land, TX 77478", "lat": 29.6385, "lng": -95.6021},
    {"name": "Pizza Hut (Pearland)", "cuisine": "fast food", "rating": 3.8, "address": "9415 Broadway St #140, Pearland, TX 77584", "lat": 29.5492, "lng": -95.3789},
    {"name": "Pizza Hut (The Woodlands)", "cuisine": "fast food", "rating": 3.8, "address": "1900 Hughes Landing Blvd #140, The Woodlands, TX 77380", "lat": 30.1601, "lng": -95.4673},
    {"name": "Pizza Hut (Cypress)", "cuisine": "fast food", "rating": 3.8, "address": "28320 Highway 290 #140, Cypress, TX 77433", "lat": 29.9575, "lng": -95.6792},
    {"name": "Pizza Hut (Spring)", "cuisine": "fast food", "rating": 3.8, "address": "8723 Spring Cypress Rd #140, Spring, TX 77379", "lat": 30.0456, "lng": -95.5678},
    {"name": "Pizza Hut (Humble)", "cuisine": "fast food", "rating": 3.8, "address": "20410 Hwy 59 N #140, Humble, TX 77338", "lat": 30.0156, "lng": -95.2678},
    {"name": "Pizza Hut (Conroe)", "cuisine": "fast food", "rating": 3.8, "address": "1000 Outpost Dr #140, Conroe, TX 77304", "lat": 30.3421, "lng": -95.4955},
    {"name": "Pizza Hut (Baytown)", "cuisine": "fast food", "rating": 3.8, "address": "4520 Garth Rd #140, Baytown, TX 77521", "lat": 29.7745, "lng": -95.0189},
    {"name": "Pizza Hut (Pasadena)", "cuisine": "fast food", "rating": 3.8, "address": "4806 Spencer Hwy #140, Pasadena, TX 77505", "lat": 29.6358, "lng": -95.1743},
    {"name": "Pizza Hut (League City)", "cuisine": "fast food", "rating": 3.8, "address": "2549 Gulf Fwy S #140, League City, TX 77573", "lat": 29.4834, "lng": -95.0956},
    {"name": "Pizza Hut (Friendswood)", "cuisine": "fast food", "rating": 3.8, "address": "702 W Parkwood Ave #140, Friendswood, TX 77546", "lat": 29.5805, "lng": -95.2016},
    {"name": "Pizza Hut (Galveston)", "cuisine": "fast food", "rating": 3.8, "address": "5600 Seawall Blvd #140, Galveston, TX 77551", "lat": 29.2731, "lng": -94.8273},
    {"name": "Pizza Hut (Texas City)", "cuisine": "fast food", "rating": 3.8, "address": "2101 Palmer Hwy #140, Texas City, TX 77590", "lat": 29.3917, "lng": -94.9221},
    {"name": "Pizza Hut (Rosenberg)", "cuisine": "fast food", "rating": 3.8, "address": "27402 Southwest Fwy #140, Rosenberg, TX 77471", "lat": 29.5311, "lng": -95.7752},
    {"name": "Pizza Hut (Missouri City)", "cuisine": "fast food", "rating": 3.8, "address": "5730 Highway 6 #140, Missouri City, TX 77459", "lat": 29.5891, "lng": -95.5562},
    {"name": "Domino's Pizza (Katy)", "cuisine": "fast food", "rating": 3.7, "address": "3720 FM 1463 Rd #150, Katy, TX 77494", "lat": 29.7228, "lng": -95.7512},
    {"name": "Domino's Pizza (Sugar Land)", "cuisine": "fast food", "rating": 3.7, "address": "510 TX-6 #150, Sugar Land, TX 77479", "lat": 29.5886, "lng": -95.6375},
    {"name": "Domino's Pizza (Pearland)", "cuisine": "fast food", "rating": 3.7, "address": "9415 Broadway St #150, Pearland, TX 77584", "lat": 29.5492, "lng": -95.3789},
    {"name": "Domino's Pizza (The Woodlands)", "cuisine": "fast food", "rating": 3.7, "address": "1900 Hughes Landing Blvd #150, The Woodlands, TX 77380", "lat": 30.1601, "lng": -95.4673},
    {"name": "Domino's Pizza (Cypress)", "cuisine": "fast food", "rating": 3.7, "address": "28320 Highway 290 #150, Cypress, TX 77433", "lat": 29.9575, "lng": -95.6792},
    {"name": "Domino's Pizza (Spring)", "cuisine": "fast food", "rating": 3.7, "address": "8723 Spring Cypress Rd #150, Spring, TX 77379", "lat": 30.0456, "lng": -95.5678},
    {"name": "Domino's Pizza (Humble)", "cuisine": "fast food", "rating": 3.7, "address": "20410 Hwy 59 N #150, Humble, TX 77338", "lat": 30.0156, "lng": -95.2678},
    {"name": "Domino's Pizza (Conroe)", "cuisine": "fast food", "rating": 3.7, "address": "1000 Outpost Dr #150, Conroe, TX 77304", "lat": 30.3421, "lng": -95.4955},
    {"name": "Domino's Pizza (Baytown)", "cuisine": "fast food", "rating": 3.7, "address": "4520 Garth Rd #150, Baytown, TX 77521", "lat": 29.7745, "lng": -95.0189},
    {"name": "Domino's Pizza (Pasadena)", "cuisine": "fast food", "rating": 3.7, "address": "4806 Spencer Hwy #150, Pasadena, TX 77505", "lat": 29.6358, "lng": -95.1743},
    {"name": "Domino's Pizza (League City)", "cuisine": "fast food", "rating": 3.7, "address": "2549 Gulf Fwy S #150, League City, TX 77573", "lat": 29.4834, "lng": -95.0956},
    {"name": "Domino's Pizza (Friendswood)", "cuisine": "fast food", "rating": 3.7, "address": "702 W Parkwood Ave #150, Friendswood, TX 77546", "lat": 29.5805, "lng": -95.2016},
    {"name": "Domino's Pizza (Galveston)", "cuisine": "fast food", "rating": 3.7, "address": "5600 Seawall Blvd #150, Galveston, TX 77551", "lat": 29.2731, "lng": -94.8273},
    {"name": "Domino's Pizza (Texas City)", "cuisine": "fast food", "rating": 3.7, "address": "2101 Palmer Hwy #150, Texas City, TX 77590", "lat": 29.3917, "lng": -94.9221},
    {"name": "Domino's Pizza (Rosenberg)", "cuisine": "fast food", "rating": 3.7, "address": "27402 Southwest Fwy #150, Rosenberg, TX 77471", "lat": 29.5311, "lng": -95.7752},
    {"name": "Domino's Pizza (Missouri City)", "cuisine": "fast food", "rating": 3.7, "address": "5730 Highway 6 #150, Missouri City, TX 77459", "lat": 29.5891, "lng": -95.5562},
    {"name": "Sabor Venezolano Restaurante", "cuisine": "venezuelan", "rating": 4.5, "address": "2340 N Fry Rd, Katy, TX 77084", "lat": 29.8164, "lng": -95.7092},
    {"name": "El Kourmet (Cinco Ranch)", "cuisine": "venezuelan", "rating": 4.6, "address": "25757 Westheimer Pkwy #100, Katy, TX 77494", "lat": 29.7384, "lng": -95.7658},
    {"name": "El Kourmet (North Katy)", "cuisine": "venezuelan", "rating": 4.6, "address": "3939 N Fry Rd #C, Katy, TX 77449", "lat": 29.8339, "lng": -95.7089},
    {"name": "El Kourmet (The Woodlands)", "cuisine": "venezuelan", "rating": 4.6, "address": "25115 Gosling Rd #105, Spring, TX 77389", "lat": 30.1287, "lng": -95.4021},
    {"name": "Budare Arepa Express", "cuisine": "venezuelan", "rating": 4.4, "address": "402 W Grand Pkwy S, Katy, TX 77494", "lat": 29.7261, "lng": -95.7458},
    {"name": "Pastel Pizza (Katy)", "cuisine": "venezuelan", "rating": 4.7, "address": "700 S Mason Rd, Katy, TX 77450", "lat": 29.7659, "lng": -95.7089},
    {"name": "Pastel Pizza (Spring)", "cuisine": "venezuelan", "rating": 4.7, "address": "25115 Gosling Rd #110, Spring, TX 77389", "lat": 30.1287, "lng": -95.4021},
    {"name": "Pastel Pizza (Houston)", "cuisine": "venezuelan", "rating": 4.7, "address": "8334 FM 529 Rd, Houston, TX 77433", "lat": 29.9575, "lng": -95.6792},
    {"name": "Pastel Pizza (FM 1463)", "cuisine": "venezuelan", "rating": 4.7, "address": "1433 FM 1463 Rd #650, Katy, TX 77494", "lat": 29.7147, "lng": -95.7883},
    {"name": "Arepas y Empanadas Dona Maria", "cuisine": "venezuelan", "rating": 4.3, "address": "9889 Bellaire Blvd, Houston, TX 77036", "lat": 29.7131, "lng": -95.5539},
    {"name": "Deli's Gourmet (Venezuelan)", "cuisine": "venezuelan", "rating": 4.4, "address": "5555 Gessner Rd #B, Houston, TX 77041", "lat": 29.7458, "lng": -95.5234},
    {"name": "El Punto Criollo (Food Truck)", "cuisine": "venezuelan", "rating": 4.2, "address": "Beechnut St & Highway 6, Houston, TX 77072", "lat": 29.7042, "lng": -95.5925},
    {"name": "La Casa de las Empanadas", "cuisine": "venezuelan", "rating": 4.3, "address": "2415 S Dairy Ashford Rd #D, Houston, TX 77077", "lat": 29.7234, "lng": -95.5678},
    {"name": "Mi Ranchito Venezolano", "cuisine": "venezuelan", "rating": 4.2, "address": "10503 Grant Rd, Houston, TX 77070", "lat": 30.0123, "lng": -95.4987},
    {"name": "Maxi Arepa", "cuisine": "venezuelan", "rating": 4.8, "address": "24811 Katy Fwy, Katy, TX 77494", "lat": 29.7891, "lng": -95.8115},
    {"name": "Katie's Seafood House", "cuisine": "seafood", "rating": 4.7, "address": "2000 Wharf Rd, Galveston, TX 77550", "lat": 29.3184, "lng": -94.7852},
    {"name": "Rudy & Paco", "cuisine": "seafood", "rating": 4.8, "address": "2028 Postoffice St, Galveston, TX 77550", "lat": 29.3029, "lng": -94.7922},
    {"name": "BLVD Seafood", "cuisine": "seafood", "rating": 4.6, "address": "2804 Avenue R 1/2, Galveston, TX 77550", "lat": 29.2933, "lng": -94.7952},
    {"name": "The Spot", "cuisine": "american", "rating": 4.4, "address": "3204 Seawall Blvd, Galveston, TX 77550", "lat": 29.2884, "lng": -94.8033},
    {"name": "Miller's Seawall Grill", "cuisine": "american", "rating": 4.5, "address": "1824 Seawall Blvd, Galveston, TX 77550", "lat": 29.2946, "lng": -94.7925},
    {"name": "Shrimp 'N Stuff", "cuisine": "seafood", "rating": 4.5, "address": "3901 Avenue O, Galveston, TX 77550", "lat": 29.2965, "lng": -94.8236},
    {"name": "Leon's World's Finest Bar-B-Que", "cuisine": "bbq", "rating": 4.4, "address": "5427 Broadway St, Galveston, TX 77551", "lat": 29.2796, "lng": -94.8399},
    {"name": "Little Daddy's Gumbo Bar", "cuisine": "cajun", "rating": 4.5, "address": "2107 Postoffice St, Galveston, TX 77550", "lat": 29.3035, "lng": -94.7914},
    {"name": "Hey Mikey's Ice Cream", "cuisine": "ice cream", "rating": 4.7, "address": "2120 Postoffice St, Galveston, TX 77550", "lat": 29.3032, "lng": -94.7916},
    {"name": "Tommy's Restaurant Oyster Bar", "cuisine": "seafood", "rating": 4.6, "address": "2555 Bay Area Blvd, Houston, TX 77058", "lat": 29.5627, "lng": -95.0935},
    {"name": "Opus Ocean Grille", "cuisine": "seafood", "rating": 4.7, "address": "1510 Marina Bay Drive, Building 124, Clear Lake Shores, TX 77565", "lat": 29.5495, "lng": -95.0232},
    {"name": "Samurai Japanese Steak & Sushi", "cuisine": "japanese", "rating": 4.5, "address": "133 West Bay Area Blvd, Webster, TX 77598", "lat": 29.5401, "lng": -95.1221},
    {"name": "Landry's Seafood House", "cuisine": "seafood", "rating": 4.4, "address": "1 Kemah Boardwalk, Kemah, TX 77565", "lat": 29.5473, "lng": -95.0194},
    {"name": "Crazy Alan's Swamp Shack", "cuisine": "cajun", "rating": 4.3, "address": "310 Texas Ave, Kemah, TX 77565", "lat": 29.5451, "lng": -95.0203},
    {"name": "T-Bone Tom's", "cuisine": "bbq", "rating": 4.5, "address": "707 TX-146, Kemah, TX 77565", "lat": 29.5413, "lng": -95.0211},
    {"name": "Nobi Public House", "cuisine": "vietnamese", "rating": 4.6, "address": "241 E NASA Pkwy, Webster, TX 77598", "lat": 29.5658, "lng": -95.1225},
    {"name": "Merlion on 4th", "cuisine": "seafood", "rating": 4.5, "address": "1301 4th St, Seabrook, TX 77586", "lat": 29.5684, "lng": -95.0238},
    {"name": "Tookie's Seafood", "cuisine": "seafood", "rating": 4.5, "address": "1106 Bayport Blvd, Seabrook, TX 77586", "lat": 29.5651, "lng": -95.0245},
    {"name": "Perry's Steakhouse & Grille - Baybrook", "cuisine": "american", "rating": 4.6, "address": "700 Baybrook Mall Dr, Friendswood, TX 77546", "lat": 29.5912, "lng": -95.1568},
    {"name": "Frenchie's Italian Restaurant", "cuisine": "italian", "rating": 4.5, "address": "1041 E NASA Pkwy, Houston, TX 77058", "lat": 29.5681, "lng": -95.0989},
    {"name": "Boondoggles Pub", "cuisine": "american", "rating": 4.4, "address": "4106 E NASA Pkwy, El Lago, TX 77586", "lat": 29.5598, "lng": -95.0487},
    {"name": "Chelsea Wine Bar", "cuisine": "american", "rating": 4.6, "address": "4106 E NASA Pkwy Suite F, El Lago, TX 77586", "lat": 29.5597, "lng": -95.0485},
    {"name": "Gianna Italian Kitchen", "cuisine": "italian", "rating": 4.6, "address": "28301 TX-249, Tomball, TX 77375", "lat": 30.0883, "lng": -95.6183},
    {"name": "Fielding's Local Kitchen + Bar", "cuisine": "american", "rating": 4.5, "address": "26400 Kuykendahl Rd, Tomball, TX 77375", "lat": 30.1068, "lng": -95.5323},
    {"name": "Margaritas & Fajitas Mexican Kitchen", "cuisine": "mexican", "rating": 4.5, "address": "30006 TX-249 STE H, Tomball, TX 77375", "lat": 30.0811, "lng": -95.5976},
    {"name": "Tejas Chocolate + Barbecue", "cuisine": "bbq", "rating": 4.8, "address": "200 N Elm St, Tomball, TX 77375", "lat": 30.0989, "lng": -95.6212},
    {"name": "The Republic Grille", "cuisine": "american", "rating": 4.6, "address": "30340 FM2978, Magnolia, TX 77354", "lat": 30.1581, "lng": -95.6111},
    {"name": "Rancho Grande Bar & Grill", "cuisine": "mexican", "rating": 4.4, "address": "18423 FM 1488 Rd, Magnolia, TX 77354", "lat": 30.2078, "lng": -95.7335},
    {"name": "Meating Place", "cuisine": "american", "rating": 4.5, "address": "18423 FM1488, Magnolia, TX 77354", "lat": 30.2079, "lng": -95.7334},
    {"name": "Cypress Trail Hideout", "cuisine": "american", "rating": 4.3, "address": "25610 Hempstead Rd, Cypress, TX 77429", "lat": 29.9659, "lng": -95.6943},
    {"name": "2920 Roadhouse", "cuisine": "american", "rating": 4.4, "address": "21835 Farm to Market 2920, Tomball, TX 77377", "lat": 30.0954, "lng": -95.7377},
    {"name": "Adriatic Cafe Italian Grill", "cuisine": "italian", "rating": 4.5, "address": "19380 I-45, Spring, TX 77388", "lat": 30.0528, "lng": -95.4591},
    {"name": "Brandani's Restaurant & Wine Bar", "cuisine": "american", "rating": 4.7, "address": "3340 FM 1092 Rd #160, Missouri City, TX 77459", "lat": 29.5889, "lng": -95.5893},
    {"name": "Vino & Vinyl", "cuisine": "american", "rating": 4.6, "address": "15977 City Walk, Sugar Land, TX 77479", "lat": 29.6215, "lng": -95.6265},
    {"name": "Off the Vine", "cuisine": "american", "rating": 4.5, "address": "2865 Dulles Ave, Missouri City, TX 77459", "lat": 29.6011, "lng": -95.5921},
    {"name": "Live Oak Grill", "cuisine": "american", "rating": 4.5, "address": "12935 Dairy Ashford Rd, Sugar Land, TX 77478", "lat": 29.6351, "lng": -95.6181},
    {"name": "Toreore", "cuisine": "korean", "rating": 4.4, "address": "14015 Southwest Fwy, Sugar Land, TX 77478", "lat": 29.6385, "lng": -95.6021},
    {"name": "Hoggs n' Chicks", "cuisine": "american", "rating": 4.5, "address": "8817 Highway 6, Missouri City, TX 77459", "lat": 29.5692, "lng": -95.5583},
    {"name": "Pythagoras", "cuisine": "greek", "rating": 4.6, "address": "14019 Southwest Fwy #3, Sugar Land, TX 77478", "lat": 29.6389, "lng": -95.6019},
    {"name": "Fajita Pete's", "cuisine": "mexican", "rating": 4.3, "address": "6218 Hwy 6, Missouri City, TX 77459", "lat": 29.5852, "lng": -95.5571},
    {"name": "Witt Pit BBQ", "cuisine": "bbq", "rating": 4.6, "address": "2024 Crabb River Rd, Rosenberg, TX 77469", "lat": 29.5421, "lng": -95.7483},
    {"name": "Pappas Seafood House", "cuisine": "seafood", "rating": 4.5, "address": "19991 I-45 S, Webster, TX 77598", "lat": 29.5824, "lng": -95.1436},
    {"name": "Peppers Steak & Seafood", "cuisine": "american", "rating": 4.6, "address": "3604 Fairmont Pkwy, Pasadena, TX 77504", "lat": 29.6581, "lng": -95.1953},
    {"name": "Baytown Seafood Pasadena", "cuisine": "seafood", "rating": 4.4, "address": "4501 Spencer Highway, Pasadena, TX 77504", "lat": 29.6455, "lng": -95.1824},
    {"name": "Jumbo Seafood Grill", "cuisine": "seafood", "rating": 4.3, "address": "8005 Spencer Hwy, Deer Park, TX 77536", "lat": 29.6821, "lng": -95.1352},
    {"name": "Fish Place", "cuisine": "seafood", "rating": 4.4, "address": "9001 Spencer Hwy, La Porte, TX 77571", "lat": 29.6648, "lng": -95.0531},
    {"name": "Gringo's Mexican Kitchen (Pasadena)", "cuisine": "mexican", "rating": 4.5, "address": "5016 Fairmont Pkwy, Pasadena, TX 77505", "lat": 29.6368, "lng": -95.1721},
    {"name": "Tortuga Mexican Kitchen", "cuisine": "mexican", "rating": 4.4, "address": "1333 E Sam Houston Pkwy S, Pasadena, TX 77503", "lat": 29.6911, "lng": -95.1952},
    {"name": "Art of Coffee", "cuisine": "cafe", "rating": 4.7, "address": "205 W 3rd St, Deer Park, TX 77536", "lat": 29.6925, "lng": -95.1189},
    {"name": "Ostia", "cuisine": "italian", "rating": 4.6, "address": "2032 Dunlavy St, Houston, TX 77006", "lat": 29.7465, "lng": -95.4053},
    {"name": "Montrose Cheese & Wine", "cuisine": "american", "rating": 4.7, "address": "1618 Westheimer Rd, Houston, TX 77006", "lat": 29.7449, "lng": -95.4005},
    {"name": "Miss Saigon", "cuisine": "vietnamese", "rating": 4.4, "address": "1500 Westheimer Rd, Houston, TX 77006", "lat": 29.7394, "lng": -95.3982},
    {"name": "Postino Heights", "cuisine": "american", "rating": 4.7, "address": "642 Yale St, Houston, TX 77007", "lat": 29.7845, "lng": -95.4042},
    {"name": "The Breakfast Klub", "cuisine": "southern", "rating": 4.6, "address": "3711 Travis St, Houston, TX 77002", "lat": 29.7408, "lng": -95.3812}
] 